{"AGAF":{"name":"Afutara","lat":-9.191365,"lon":160.948836,"fir":"AGGG"},"AGAR":{"name":"Ulawa","lat":-9.864444,"lon":161.98306,"fir":"AGGG"},"AGAT":{"name":"Atoifi","lat":-8.873167,"lon":161.013,"fir":"AGGG"},"AGBA":{"name":"Barakoma","lat":-7.9105,"lon":156.703833,"fir":"AGGG"},"AGBT":{"name":"Batuna","lat":-8.562083,"lon":158.119089,"fir":"AGGG"},"AGEV":{"name":"Geva","lat":-7.578333,"lon":156.59778,"fir":"AGGG"},"AGGA":{"name":"Auki","lat":-8.702569,"lon":160.681739,"fir":"AGGG"},"AGGB":{"name":"Bellona","lat":-11.303167,"lon":159.800333,"fir":"AGGG"},"AGGC":{"name":"Choiseul","lat":-6.714167,"lon":156.3975,"fir":"AGGG"},"AGGE":{"name":"Ballalae","lat":-6.995167,"lon":155.880167,"fir":"AGGG"},"AGGF":{"name":"Fera","lat":-8.110333,"lon":159.576833,"fir":"AGGG"},"AGGH":{"name":"Honiara Intl","lat":-9.430858,"lon":160.053067,"fir":"AGGG"},"AGGI":{"name":"Babanakira","lat":-9.750667,"lon":159.839833,"fir":"AGGG"},"AGGJ":{"name":"Avu Avu","lat":-9.869833,"lon":160.411333,"fir":"AGGG"},"AGGK":{"name":"Kirakira","lat":-10.451333,"lon":161.903333,"fir":"AGGG"},"AGGL":{"name":"Santa Cruz","lat":-10.69972,"lon":165.8,"fir":"AGGG"},"AGGM":{"name":"Munda","lat":-8.33306,"lon":157.26639,"fir":"AGGG"},"AGGN":{"name":"Gizo","lat":-8.102333,"lon":156.8665,"fir":"AGGG"},"AGGO":{"name":"Mono","lat":-7.418167,"lon":155.564,"fir":"AGGG"},"AGGP":{"name":"Parasi","lat":-9.642833,"lon":161.427333,"fir":"AGGG"},"AGGQ":{"name":"Ontong Java","lat":-5.5145,"lon":159.53,"fir":"AGGG"},"AGGR":{"name":"Rennell","lat":-11.552167,"lon":160.0655,"fir":"AGGG"},"AGGS":{"name":"Seghe","lat":-8.5795,"lon":157.879333,"fir":"AGGG"},"AGGT":{"name":"Santa Anna","lat":-10.85,"lon":162.457333,"fir":"AGGG"},"AGGU":{"name":"Marau","lat":-9.863313,"lon":160.825808,"fir":"AGGG"},"AGGV":{"name":"Suavanao","lat":-7.587333,"lon":158.729,"fir":"AGGG"},"AGGY":{"name":"Yandin","lat":-9.099167,"lon":159.226,"fir":"AGGG"},"AGIN":{"name":"Isuna Heliport","lat":-9.805809,"lon":159.96272,"fir":"AGGG"},"AGJO":{"name":"Jajao","lat":-8.213333,"lon":159.266667,"fir":"AGGG"},"AGKG":{"name":"Kaghau","lat":-7.334333,"lon":157.588333,"fir":"AGGG"},"AGKU":{"name":"Kukudu","lat":-8.02,"lon":156.946667,"fir":"AGGG"},"AGKW":{"name":"Kwailabesi","lat":-8.321333,"lon":160.795833,"fir":"AGGG"},"AGLM":{"name":"Lomlom","lat":-10.296833,"lon":166.327367,"fir":"AGGG"},"AGMU":{"name":"Malu'u Heliport","lat":-8.349166,"lon":160.628887,"fir":"AGGG"},"AGNA":{"name":"Nana","lat":-10.655,"lon":162.206667,"fir":"AGGG"},"AGOB":{"name":"Manaoba","lat":-8.321333,"lon":160.795833,"fir":"AGGG"},"AGOK":{"name":"Gatokae","lat":-8.731667,"lon":158.201667,"fir":"AGGG"},"AGRC":{"name":"Ringi Cove","lat":-8.2,"lon":157.033333,"fir":"AGGG"},"AGRM":{"name":"Ramata","lat":-8.168333,"lon":157.642667,"fir":"AGGG"},"AGTI":{"name":"Tulaghi Heliport","lat":-9.107992,"lon":160.14916,"fir":"AGGG"},"AGVH":{"name":"Viru Harbour","lat":-8.501667,"lon":157.69,"fir":"AGGG"},"ANYN":{"name":"Nauru","lat":-0.55,"lon":166.915278,"fir":"ANAU"},"AT98":{"name":"Wolf's Fang Runway","lat":-71.366,"lon":8.4985,"fir":"FAJO"},"AYAA":{"name":"Ama","lat":-4.1032,"lon":141.6712,"fir":"AYPM"},"AYAB":{"name":"Ambaluwa","lat":-5.7227,"lon":144.923,"fir":"AYPM"},"AYAC":{"name":"Akwom","lat":-3.9425,"lon":141.833,"fir":"AYPM"},"AYAD":{"name":"Ande","lat":-7.0218,"lon":145.8232,"fir":"AYPM"},"AYAE":{"name":"Aue","lat":-6.2325,"lon":144.6658,"fir":"AYPM"},"AYAF":{"name":"Afore","lat":-9.1417,"lon":148.3833,"fir":"AYPM"},"AYAG":{"name":"Agaun","lat":-9.9267,"lon":149.3933,"fir":"AYPM"},"AYAH":{"name":"Ali","lat":-7.924,"lon":142.345,"fir":"AYPM"},"AYAI":{"name":"Aitape","lat":-3.1457,"lon":142.3478,"fir":"AYPM"},"AYAJ":{"name":"Ambua","lat":-5.962,"lon":143.0637,"fir":"AYPM"},"AYAK":{"name":"Aiambak","lat":-7.3423,"lon":141.266,"fir":"AYPM"},"AYAL":{"name":"Agali","lat":-5.3459,"lon":142.2124,"fir":"AYPM"},"AYAM":{"name":"Amanab","lat":-3.5893,"lon":141.2142,"fir":"AYPM"},"AYAN":{"name":"Andakombe","lat":-7.1367,"lon":145.7457,"fir":"AYPM"},"AYAO":{"name":"Aiome","lat":-5.1457,"lon":144.7307,"fir":"AYPM"},"AYAP":{"name":"Appa","lat":-6.5178,"lon":144.7081,"fir":"AYPM"},"AYAQ":{"name":"Kompiam","lat":-5.3838,"lon":143.9222,"fir":"AYPM"},"AYAR":{"name":"Anangalo","lat":-4.6012,"lon":143.8433,"fir":"AYPM"},"AYAS":{"name":"Asama","lat":-8.0225,"lon":147.271,"fir":"AYPM"},"AYAT":{"name":"Ambunti","lat":-4.2157,"lon":142.8224,"fir":"AYPM"},"AYAU":{"name":"Arou","lat":-5.4968,"lon":142.5152,"fir":"AYPM"},"AYAV":{"name":"Arkosame","lat":-3.7792,"lon":142.6227,"fir":"AYPM"},"AYAW":{"name":"Awaba","lat":-8.0128,"lon":142.752,"fir":"AYPM"},"AYAX":{"name":"Aseki","lat":-7.3523,"lon":146.194,"fir":"AYPM"},"AYAY":{"name":"Aiyura","lat":-6.316667,"lon":145.9,"fir":"AYPM"},"AYAZ":{"name":"Asimba","lat":-8.6047,"lon":147.5913,"fir":"AYPM"},"AYBA":{"name":"Baimuru","lat":-7.4972,"lon":144.8245,"fir":"AYPM"},"AYBB":{"name":"Bige","lat":-5.948786,"lon":141.131320229977,"fir":"AYPM"},"AYBC":{"name":"Bambu","lat":-5.8638,"lon":146.4905,"fir":"AYPM"},"AYBD":{"name":"Bodinumu","lat":-9.1083,"lon":147.6662,"fir":"AYPM"},"AYBE":{"name":"Boure","lat":-9.6188,"lon":148.7415,"fir":"AYPM"},"AYBF":{"name":"Bamu","lat":-7.8483,"lon":143.2435,"fir":"AYPM"},"AYBG":{"name":"Baindoung","lat":-6.3462,"lon":146.9403,"fir":"AYPM"},"AYBH":{"name":"Bensback","lat":-8.8505,"lon":141.254,"fir":"AYPM"},"AYBI":{"name":"Bewani","lat":-3.0228,"lon":141.1668,"fir":"AYPM"},"AYBJ":{"name":"Bank","lat":-5.3647,"lon":144.6902,"fir":"AYPM"},"AYBK":{"name":"Buka","lat":-5.422317,"lon":154.672667,"fir":"AYPM"},"AYBL":{"name":"Bialla","lat":-5.3278,"lon":151.0043,"fir":"AYPM"},"AYBM":{"name":"Balimo","lat":-8.05215,"lon":142.940583,"fir":"AYPM"},"AYBN":{"name":"Baina","lat":-6.891,"lon":143.6827,"fir":"AYPM"},"AYBO":{"name":"Bomai","lat":-6.371,"lon":144.638,"fir":"AYPM"},"AYBP":{"name":"Bapi","lat":-7.7437,"lon":147.0212,"fir":"AYPM"},"AYBQ":{"name":"Biangabip","lat":-5.5283,"lon":141.7448,"fir":"AYPM"},"AYBR":{"name":"Biaru","lat":-7.6702,"lon":146.7588,"fir":"AYPM"},"AYBS":{"name":"Begesin","lat":-5.3878,"lon":145.4472,"fir":"AYPM"},"AYBT":{"name":"Batri","lat":-6.5513,"lon":143.9412,"fir":"AYPM"},"AYBU":{"name":"Bulolo","lat":-7.221183,"lon":146.65125,"fir":"AYPM"},"AYBW":{"name":"Blackwara","lat":-4.7322,"lon":141.9424,"fir":"AYPM"},"AYBX":{"name":"Wowobo","lat":-7.341,"lon":144.5473,"fir":"AYPM"},"AYBY":{"name":"Wuyabo","lat":-6.8394,"lon":145.8731,"fir":"AYPM"},"AYBZ":{"name":"Biniguni","lat":-9.6427,"lon":149.3028,"fir":"AYPM"},"AYCB":{"name":"Chungribu","lat":-4.8047,"lon":144.7152,"fir":"AYPM"},"AYCE":{"name":"Mt Sinewit","lat":-4.682971,"lon":151.946681,"fir":"AYPM"},"AYCG":{"name":"Cape Gloucester","lat":-5.4565,"lon":148.4193,"fir":"AYPM"},"AYCH":{"name":"Chimbu","lat":-6.024292,"lon":144.970528,"fir":"AYPM"},"AYCK":{"name":"Mt Penck","lat":-5.522223,"lon":149.64849,"fir":"AYPM"},"AYCL":{"name":"Cape Lemeris","lat":-3.249889,"lon":152.024661,"fir":"AYPM"},"AYCN":{"name":"Changriwa","lat":-4.33,"lon":143.7383,"fir":"AYPM"},"AYCR":{"name":"Mt Scratchley","lat":-8.731765,"lon":147.438221,"fir":"AYPM"},"AYCS":{"name":"China Strait","lat":-10.565,"lon":150.6908,"fir":"AYPM"},"AYDA":{"name":"Dahamo","lat":-5.7528,"lon":141.994,"fir":"AYPM"},"AYDB":{"name":"Debepari","lat":-6.3071,"lon":141.9034,"fir":"AYPM"},"AYDD":{"name":"Dobu","lat":-6.6307,"lon":144.6413,"fir":"AYPM"},"AYDE":{"name":"Derim","lat":-6.1454,"lon":147.1083,"fir":"AYPM"},"AYDI":{"name":"Bundi","lat":-5.739,"lon":145.2268,"fir":"AYPM"},"AYDK":{"name":"Munduku","lat":-4.6197,"lon":143.4488,"fir":"AYPM"},"AYDL":{"name":"Kondobal","lat":-8.5323,"lon":142.507,"fir":"AYPM"},"AYDM":{"name":"Duranmin","lat":-4.9747,"lon":141.9067,"fir":"AYPM"},"AYDN":{"name":"Diningat","lat":-6.1578,"lon":146.6804,"fir":"AYPM"},"AYDO":{"name":"Doini","lat":-10.7032,"lon":150.7237,"fir":"AYPM"},"AYDP":{"name":"Tsendiap","lat":-5.3589,"lon":144.4489,"fir":"AYPM"},"AYDQ":{"name":"Dimisisi","lat":-8.6312,"lon":142.2174,"fir":"AYPM"},"AYDR":{"name":"Dorobisoro","lat":-9.4618,"lon":147.9188,"fir":"AYPM"},"AYDS":{"name":"Dusin","lat":-5.1836,"lon":144.4121,"fir":"AYPM"},"AYDU":{"name":"Daru","lat":-9.086756,"lon":143.207939,"fir":"AYPM"},"AYDV":{"name":"Mt Andewa","lat":-5.543596,"lon":148.979798,"fir":"AYPM"},"AYDW":{"name":"Dewara","lat":-8.3832,"lon":142.4502,"fir":"AYPM"},"AYDX":{"name":"Mt Doigo","lat":-9.892704,"lon":148.095216,"fir":"AYPM"},"AYDY":{"name":"Sindeni","lat":-7.0067,"lon":145.7945,"fir":"AYPM"},"AYEA":{"name":"Kerau","lat":-8.2698,"lon":147.0705,"fir":"AYPM"},"AYEB":{"name":"Embessa","lat":-9.4495,"lon":148.7633,"fir":"AYPM"},"AYED":{"name":"Edwaki","lat":-3.8865,"lon":141.791,"fir":"AYPM"},"AYEE":{"name":"Emirau","lat":-1.654,"lon":149.9758,"fir":"AYPM"},"AYEF":{"name":"Efogi","lat":-9.153,"lon":147.6602,"fir":"AYPM"},"AYEG":{"name":"Mengina","lat":-6.4858,"lon":144.9856,"fir":"AYPM"},"AYEH":{"name":"Morehead","lat":-8.7136,"lon":141.6416,"fir":"AYPM"},"AYEI":{"name":"Milei","lat":-9.0792,"lon":147.6005,"fir":"AYPM"},"AYEK":{"name":"Membok","lat":-6.4742,"lon":141.0197,"fir":"AYPM"},"AYEL":{"name":"Eliptamin","lat":-5.043,"lon":141.6796,"fir":"AYPM"},"AYEM":{"name":"Eleme","lat":-4.8152,"lon":143.9107,"fir":"AYPM"},"AYEN":{"name":"Engati","lat":-6.9197,"lon":146.1055,"fir":"AYPM"},"AYEO":{"name":"Emo","lat":-9.1243,"lon":148.041,"fir":"AYPM"},"AYEQ":{"name":"Morere","lat":-7.3245,"lon":144.3827,"fir":"AYPM"},"AYER":{"name":"Erume","lat":-8.256,"lon":146.9747,"fir":"AYPM"},"AYES":{"name":"Mesilia","lat":-6.1355,"lon":149.1192,"fir":"AYPM"},"AYET":{"name":"Bosset","lat":-7.2399,"lon":141.1081,"fir":"AYPM"},"AYEU":{"name":"Elouaua","lat":-1.5592,"lon":149.6318,"fir":"AYPM"},"AYEV":{"name":"Erave","lat":-6.606,"lon":143.9003,"fir":"AYPM"},"AYEW":{"name":"Siwea","lat":-6.2838,"lon":147.5827,"fir":"AYPM"},"AYEX":{"name":"Mt Albert Edward","lat":-8.412151,"lon":147.403491,"fir":"AYPM"},"AYEY":{"name":"Mirsey","lat":-4.0593,"lon":142.6618,"fir":"AYPM"},"AYEZ":{"name":"Moropote","lat":-4.5858,"lon":142.3361,"fir":"AYPM"},"AYFA":{"name":"Fane","lat":-8.548,"lon":147.0863,"fir":"AYPM"},"AYFF":{"name":"Faia","lat":-7.158833,"lon":143.529,"fir":"AYPM"},"AYFI":{"name":"Finschhaffen","lat":-6.6147,"lon":147.854,"fir":"AYPM"},"AYFK":{"name":"Foroko","lat":-5.3285,"lon":144.8942,"fir":"AYPM"},"AYFL":{"name":"Mt Fala","lat":-8.956118,"lon":147.711141,"fir":"AYPM"},"AYFM":{"name":"Feranmin","lat":-5.208,"lon":141.6988,"fir":"AYPM"},"AYFO":{"name":"Fogomaio","lat":-6.5107,"lon":143.0805,"fir":"AYPM"},"AYFR":{"name":"Freida River","lat":-4.6082,"lon":141.9608,"fir":"AYPM"},"AYFS":{"name":"Fas","lat":-3.1992,"lon":141.4748,"fir":"AYPM"},"AYFU":{"name":"Fuma","lat":-6.3922,"lon":142.443,"fir":"AYPM"},"AYFW":{"name":"Kwieftim","lat":-3.5989,"lon":141.7697,"fir":"AYPM"},"AYGA":{"name":"Goroka","lat":-6.081689,"lon":145.391881,"fir":"AYPM"},"AYGB":{"name":"Gobe","lat":-6.76965,"lon":143.721867,"fir":"AYPM"},"AYGC":{"name":"Gewoia","lat":-9.1883,"lon":148.4833,"fir":"AYPM"},"AYGD":{"name":"Gimi","lat":-6.648,"lon":145.4005,"fir":"AYPM"},"AYGE":{"name":"Geigorobi","lat":-4.104,"lon":143.304,"fir":"AYPM"},"AYGF":{"name":"Guari","lat":-8.1307,"lon":146.8737,"fir":"AYPM"},"AYGG":{"name":"Garasa","lat":-7.9803,"lon":147.2132,"fir":"AYPM"},"AYGH":{"name":"Guhu","lat":-5.6965,"lon":146.119,"fir":"AYPM"},"AYGI":{"name":"Garaina","lat":-7.8813,"lon":147.147,"fir":"AYPM"},"AYGJ":{"name":"Guasopa","lat":-9.2248,"lon":152.9438,"fir":"AYPM"},"AYGL":{"name":"Gonaili","lat":-5.5277,"lon":151.5733,"fir":"AYPM"},"AYGM":{"name":"Gema","lat":-6.805,"lon":145.775,"fir":"AYPM"},"AYGN":{"name":"Gurney","lat":-10.311531,"lon":150.333756,"fir":"AYPM"},"AYGO":{"name":"Gokto","lat":-4.9153,"lon":144.4905,"fir":"AYPM"},"AYGP":{"name":"Gusap","lat":-6.0575,"lon":145.9638,"fir":"AYPM"},"AYGQ":{"name":"Gawa","lat":-5.2578,"lon":142.2304,"fir":"AYPM"},"AYGR":{"name":"Girua","lat":-8.804544,"lon":148.309047,"fir":"AYPM"},"AYGS":{"name":"Gasuke","lat":-6.1027,"lon":141.7398,"fir":"AYPM"},"AYGT":{"name":"Gasmata","lat":-6.272,"lon":150.3345,"fir":"AYPM"},"AYGU":{"name":"Anguganak","lat":-3.561,"lon":142.219,"fir":"AYPM"},"AYGV":{"name":"Green River","lat":-3.8997,"lon":141.1796,"fir":"AYPM"},"AYGW":{"name":"Guwasa","lat":-6.4673,"lon":145.0847,"fir":"AYPM"},"AYGX":{"name":"Gora","lat":-9.0017,"lon":148.2353,"fir":"AYPM"},"AYGY":{"name":"Guavi","lat":-6.8729,"lon":142.755,"fir":"AYPM"},"AYGZ":{"name":"Gubam","lat":-8.6115,"lon":141.9198,"fir":"AYPM"},"AYHA":{"name":"Haia","lat":-6.705,"lon":144.999,"fir":"AYPM"},"AYHB":{"name":"Habi","lat":-6.321,"lon":142.4885,"fir":"AYPM"},"AYHE":{"name":"Heiweni","lat":-7.4213,"lon":146.4282,"fir":"AYPM"},"AYHF":{"name":"Hayfield","lat":-3.685,"lon":143.058,"fir":"AYPM"},"AYHG":{"name":"Haelogo","lat":-9.1355,"lon":147.5975,"fir":"AYPM"},"AYHH":{"name":"Honinabi","lat":-6.2449,"lon":142.1772,"fir":"AYPM"},"AYHJ":{"name":"Hewa","lat":-5.1888,"lon":142.9603,"fir":"AYPM"},"AYHK":{"name":"Hoskins","lat":-5.462169,"lon":150.404944,"fir":"AYPM"},"AYHL":{"name":"Hesalibi","lat":-6.6015,"lon":142.3504,"fir":"AYPM"},"AYHN":{"name":"Habina","lat":-6.6645,"lon":146.0007,"fir":"AYPM"},"AYHO":{"name":"Haiwaro","lat":-6.9402,"lon":143.0603,"fir":"AYPM"},"AYHQ":{"name":"Hauna","lat":-4.2978,"lon":142.2309,"fir":"AYPM"},"AYHS":{"name":"Mt Shungol","lat":-6.863388,"lon":146.715629,"fir":"AYPM"},"AYHT":{"name":"Hotmin","lat":-4.5787,"lon":141.5592,"fir":"AYPM"},"AYHU":{"name":"Hauwabaga","lat":-7.393,"lon":146.0013,"fir":"AYPM"},"AYHW":{"name":"Haewenai","lat":-5.7218,"lon":141.3203,"fir":"AYPM"},"AYHX":{"name":"Herowana","lat":-6.6536,"lon":145.1973,"fir":"AYPM"},"AYHY":{"name":"Huya","lat":-6.2718,"lon":142.7067,"fir":"AYPM"},"AYHZ":{"name":"Tahu","lat":-9.49747,"lon":147.911472,"fir":"AYPM"},"AYIA":{"name":"Nissan","lat":-4.4963,"lon":154.225,"fir":"AYPM"},"AYIB":{"name":"Ibil","lat":-4.6839,"lon":141.0308,"fir":"AYPM"},"AYIC":{"name":"Mt Ialibu","lat":-6.235198,"lon":144.078452,"fir":"AYPM"},"AYID":{"name":"Indagen","lat":-6.2266,"lon":147.2463,"fir":"AYPM"},"AYIF":{"name":"Kilifas","lat":-3.2148,"lon":141.3642,"fir":"AYPM"},"AYIG":{"name":"Gumini","lat":-10.31965,"lon":150.116369,"fir":"AYPM"},"AYIH":{"name":"Ihu","lat":-7.9005,"lon":145.4002,"fir":"AYPM"},"AYII":{"name":"Imani","lat":-6.7518,"lon":146.109,"fir":"AYPM"},"AYIJ":{"name":"Iaura","lat":-9.7833,"lon":148.1,"fir":"AYPM"},"AYIK":{"name":"Itokama","lat":-9.1983,"lon":148.2652,"fir":"AYPM"},"AYIL":{"name":"Bili","lat":-5.6682,"lon":151.1013,"fir":"AYPM"},"AYIM":{"name":"Kungim","lat":-5.6723,"lon":141.0293,"fir":"AYPM"},"AYIN":{"name":"Busilmin","lat":-4.9179,"lon":141.157,"fir":"AYPM"},"AYIO":{"name":"Imonda","lat":-3.3287,"lon":141.1598,"fir":"AYPM"},"AYIP":{"name":"Iropena","lat":-5.0323,"lon":143.8715,"fir":"AYPM"},"AYIQ":{"name":"Kieta","lat":-6.306122,"lon":155.728006,"fir":"AYPM"},"AYIR":{"name":"Inaru","lat":-4.6327,"lon":142.8937,"fir":"AYPM"},"AYIS":{"name":"Isan","lat":-5.9796,"lon":146.6202,"fir":"AYPM"},"AYIT":{"name":"Iteri","lat":-4.242,"lon":141.524,"fir":"AYPM"},"AYIU":{"name":"Ialibu","lat":-6.2793,"lon":143.9967,"fir":"AYPM"},"AYIV":{"name":"Iagifu 5","lat":-6.443031,"lon":143.215886,"fir":"AYPM"},"AYIW":{"name":"Wasua","lat":-8.284,"lon":142.869,"fir":"AYPM"},"AYIX":{"name":"Witu","lat":-4.6877,"lon":149.436,"fir":"AYPM"},"AYIY":{"name":"Miyanmin","lat":-4.904,"lon":141.6232,"fir":"AYPM"},"AYIZ":{"name":"Iora","lat":-8.920833,"lon":147.766667,"fir":"AYPM"},"AYJA":{"name":"Takis","lat":-4.207926,"lon":151.502748,"fir":"AYPM"},"AYJB":{"name":"Jacquinot Bay","lat":-5.6565,"lon":151.5075,"fir":"AYPM"},"AYJE":{"name":"Yomneri","lat":-5.2378,"lon":144.601,"fir":"AYPM"},"AYJK":{"name":"Mt Kegam","lat":-5.696592,"lon":144.109657,"fir":"AYPM"},"AYJL":{"name":"Junkaral","lat":-5.4202,"lon":145.0116,"fir":"AYPM"},"AYJM":{"name":"Samarai","lat":-10.611648,"lon":150.663005,"fir":"AYPM"},"AYJN":{"name":"Mt Kaijende","lat":-5.473602,"lon":143.196782,"fir":"AYPM"},"AYJO":{"name":"Yongai","lat":-8.528,"lon":147.4615,"fir":"AYPM"},"AYJQ":{"name":"Sauwo","lat":-8.743639,"lon":147.27114,"fir":"AYPM"},"AYJR":{"name":"Roguia","lat":-9.20174,"lon":147.553736,"fir":"AYPM"},"AYJS":{"name":"Josephstaal","lat":-4.7493,"lon":145.0053,"fir":"AYPM"},"AYJW":{"name":"Wauru","lat":-4.1812,"lon":141.1978,"fir":"AYPM"},"AYKA":{"name":"Kiriwina","lat":-8.511833,"lon":151.085666,"fir":"AYPM"},"AYKB":{"name":"Kabwum","lat":-6.1564,"lon":147.1896,"fir":"AYPM"},"AYKC":{"name":"Kandrian","lat":-6.1987,"lon":149.5483,"fir":"AYPM"},"AYKD":{"name":"Kamina","lat":-7.6503,"lon":145.9585,"fir":"AYPM"},"AYKF":{"name":"Kafa","lat":-6.5858,"lon":143.5132,"fir":"AYPM"},"AYKG":{"name":"Kopiago","lat":-5.383333,"lon":142.55,"fir":"AYPM"},"AYKH":{"name":"Kamulai","lat":-8.1483,"lon":146.8337,"fir":"AYPM"},"AYKI":{"name":"Kiunga","lat":-6.126666,"lon":141.277333,"fir":"AYPM"},"AYKJ":{"name":"Kanainj","lat":-5.2891,"lon":144.7082,"fir":"AYPM"},"AYKK":{"name":"Kikori","lat":-7.426166,"lon":144.252333,"fir":"AYPM"},"AYKL":{"name":"Kafle","lat":-3.748,"lon":142.588,"fir":"AYPM"},"AYKM":{"name":"Kerema","lat":-7.963667,"lon":145.771333,"fir":"AYPM"},"AYKO":{"name":"Kokoda","lat":-8.8882,"lon":147.7305,"fir":"AYPM"},"AYKQ":{"name":"Kagi","lat":-9.1363,"lon":147.6675,"fir":"AYPM"},"AYKR":{"name":"Kar Kar","lat":-4.5593,"lon":145.942,"fir":"AYPM"},"AYKS":{"name":"Kamusi","lat":-7.4247,"lon":143.1224,"fir":"AYPM"},"AYKT":{"name":"Kaintiba","lat":-7.5012,"lon":146.0343,"fir":"AYPM"},"AYKU":{"name":"Kuri","lat":-7.135,"lon":143.2718,"fir":"AYPM"},"AYKV":{"name":"Kavieng","lat":-2.579397,"lon":150.807978,"fir":"AYPM"},"AYKW":{"name":"Kawito","lat":-7.9805,"lon":142.8239,"fir":"AYPM"},"AYKX":{"name":"Karik","lat":-5.4483,"lon":143.1658,"fir":"AYPM"},"AYKY":{"name":"Kunaye","lat":-3.043833,"lon":152.595833,"fir":"AYPM"},"AYKZ":{"name":"Kairiru","lat":-3.355,"lon":143.5383,"fir":"AYPM"},"AYLA":{"name":"Lae","lat":-6.738333,"lon":146.996667,"fir":"AYPM"},"AYLB":{"name":"Lab Lab","lat":-5.7233,"lon":148.0598,"fir":"AYPM"},"AYLC":{"name":"Lake Campbell","lat":-6.748,"lon":142.605,"fir":"AYPM"},"AYLD":{"name":"Kohai Lodge","lat":-2.03544,"lon":147.287831,"fir":"AYPM"},"AYLF":{"name":"Lumusa","lat":-5.5283,"lon":144.0657,"fir":"AYPM"},"AYLG":{"name":"Kegesugl","lat":-5.834,"lon":145.0992,"fir":"AYPM"},"AYLH":{"name":"Klauhau","lat":-4.1255,"lon":142.2427,"fir":"AYPM"},"AYLI":{"name":"Kibuli","lat":-9.0068,"lon":142.6983,"fir":"AYPM"},"AYLJ":{"name":"Lamogai","lat":-5.821,"lon":149.3035,"fir":"AYPM"},"AYLL":{"name":"Linga Linga","lat":-5.5308,"lon":149.7378,"fir":"AYPM"},"AYLM":{"name":"Lake Murray","lat":-7.0083,"lon":141.492,"fir":"AYPM"},"AYLN":{"name":"Langimar","lat":-7.2205,"lon":146.2172,"fir":"AYPM"},"AYLO":{"name":"Lowai","lat":-6.333,"lon":146.6477,"fir":"AYPM"},"AYLP":{"name":"Leron Plains","lat":-6.4,"lon":146.35,"fir":"AYPM"},"AYLQ":{"name":"Lagoon","lat":-8.8158,"lon":143.1318,"fir":"AYPM"},"AYLS":{"name":"Lese","lat":-8.279,"lon":146.2755,"fir":"AYPM"},"AYLT":{"name":"Lengbati","lat":-6.3838,"lon":147.3698,"fir":"AYPM"},"AYLU":{"name":"Lumi","lat":-3.4763,"lon":142.0433,"fir":"AYPM"},"AYLV":{"name":"Laweni","lat":-8.95967,"lon":147.868571,"fir":"AYPM"},"AYLW":{"name":"Lewada","lat":-8.3387,"lon":142.7834,"fir":"AYPM"},"AYLX":{"name":"Long Island","lat":-5.3595,"lon":147.019,"fir":"AYPM"},"AYLY":{"name":"Myola","lat":-9.1505,"lon":147.7635,"fir":"AYPM"},"AYLZ":{"name":"Slai","lat":-4.0315,"lon":143.183,"fir":"AYPM"},"AYMA":{"name":"Manari","lat":-9.1892,"lon":147.6213,"fir":"AYPM"},"AYMB":{"name":"Morobe","lat":-7.7388,"lon":147.5902,"fir":"AYPM"},"AYMC":{"name":"Menyamya","lat":-7.216,"lon":146.0205,"fir":"AYPM"},"AYMD":{"name":"Madang","lat":-5.207083,"lon":145.7887,"fir":"AYPM"},"AYME":{"name":"Marea","lat":-5.8218,"lon":145.5653,"fir":"AYPM"},"AYMF":{"name":"Maimafu","lat":-6.5038,"lon":145.0323,"fir":"AYPM"},"AYMG":{"name":"Magleri","lat":-4.0502,"lon":141.9867,"fir":"AYPM"},"AYMH":{"name":"Mount Hagen","lat":-5.826111,"lon":144.296111,"fir":"AYPM"},"AYMI":{"name":"Mindik","lat":-6.4698,"lon":147.4412,"fir":"AYPM"},"AYMJ":{"name":"Makini","lat":-6.534,"lon":147.6535,"fir":"AYPM"},"AYMK":{"name":"Mok","lat":-5.7325,"lon":149.057,"fir":"AYPM"},"AYML":{"name":"Mougulu","lat":-6.2824,"lon":142.4215,"fir":"AYPM"},"AYMM":{"name":"Mal","lat":-1.3885,"lon":144.1723,"fir":"AYPM"},"AYMN":{"name":"Mendi","lat":-6.147739,"lon":143.657164,"fir":"AYPM"},"AYMO":{"name":"Momote","lat":-2.061889,"lon":147.42415,"fir":"AYPM"},"AYMP":{"name":"Malalaua","lat":-8.0735,"lon":146.1607,"fir":"AYPM"},"AYMQ":{"name":"Malam","lat":-8.7112,"lon":142.6536,"fir":"AYPM"},"AYMR":{"name":"Moro","lat":-6.363666,"lon":143.2455,"fir":"AYPM"},"AYMS":{"name":"Misima","lat":-10.689333,"lon":152.8325,"fir":"AYPM"},"AYMT":{"name":"Malamunda","lat":-4.9193,"lon":143.161,"fir":"AYPM"},"AYMU":{"name":"Muluma","lat":-6.4262,"lon":142.7688,"fir":"AYPM"},"AYMV":{"name":"Malekolon","lat":-4.0225,"lon":153.6567,"fir":"AYPM"},"AYMW":{"name":"Marawaka","lat":-6.9696,"lon":145.8883,"fir":"AYPM"},"AYMX":{"name":"Mamusi","lat":-5.1978,"lon":144.1943,"fir":"AYPM"},"AYMY":{"name":"Smok","lat":-3.3157,"lon":141.2457,"fir":"AYPM"},"AYMZ":{"name":"Mabua","lat":-2.8095,"lon":151.9905,"fir":"AYPM"},"AYNA":{"name":"Nankina","lat":-5.8386,"lon":146.4549,"fir":"AYPM"},"AYNB":{"name":"Kanabea","lat":-7.5393,"lon":145.9047,"fir":"AYPM"},"AYNC":{"name":"Nadunumu","lat":-9.1442,"lon":147.683,"fir":"AYPM"},"AYND":{"name":"Aua Island","lat":-1.4565,"lon":143.0622,"fir":"AYPM"},"AYNE":{"name":"Negabo","lat":-6.5683,"lon":144.7047,"fir":"AYPM"},"AYNF":{"name":"Nagri","lat":-4.0902,"lon":142.5905,"fir":"AYPM"},"AYNG":{"name":"Manguna","lat":-5.5757,"lon":151.7893,"fir":"AYPM"},"AYNH":{"name":"Nahu","lat":-5.8433,"lon":146.1132,"fir":"AYPM"},"AYNI":{"name":"Nuguria","lat":-3.4053,"lon":154.7358,"fir":"AYPM"},"AYNJ":{"name":"Namudi","lat":-9.473,"lon":148.3315,"fir":"AYPM"},"AYNK":{"name":"Nomaneneng","lat":-6.4182,"lon":147.3243,"fir":"AYPM"},"AYNL":{"name":"Naoro","lat":-9.2535,"lon":147.621,"fir":"AYPM"},"AYNM":{"name":"Kasanombe","lat":-6.381,"lon":146.9853,"fir":"AYPM"},"AYNN":{"name":"Kandep","lat":-5.841,"lon":143.5115,"fir":"AYPM"},"AYNO":{"name":"Nomane","lat":-6.3205,"lon":145.0687,"fir":"AYPM"},"AYNP":{"name":"Momonup","lat":-4.5045,"lon":144.2322,"fir":"AYPM"},"AYNQ":{"name":"Kibeni","lat":-7.4853,"lon":143.8223,"fir":"AYPM"},"AYNR":{"name":"Nomad River","lat":-6.2944,"lon":142.2333,"fir":"AYPM"},"AYNS":{"name":"Bonsil","lat":-5.7213,"lon":147.8665,"fir":"AYPM"},"AYNT":{"name":"Kantobo","lat":-6.7232,"lon":143.5677,"fir":"AYPM"},"AYNU":{"name":"Nuku","lat":-3.6744,"lon":142.4823,"fir":"AYPM"},"AYNV":{"name":"Nutuve","lat":-5.3357,"lon":151.6637,"fir":"AYPM"},"AYNW":{"name":"Nowata","lat":-9.982,"lon":149.7315,"fir":"AYPM"},"AYNX":{"name":"Namatanai","lat":-3.6728,"lon":152.4407,"fir":"AYPM"},"AYNY":{"name":"Nambaiyufa","lat":-6.25,"lon":145.2333,"fir":"AYPM"},"AYNZ":{"name":"Nadzab","lat":-6.569828,"lon":146.726242,"fir":"AYPM"},"AYOA":{"name":"Kwomtari","lat":-3.5938,"lon":141.3627,"fir":"AYPM"},"AYOB":{"name":"Obo","lat":-7.5903,"lon":141.3226,"fir":"AYPM"},"AYOC":{"name":"Ok Tedi","lat":-5.411667,"lon":141.316667,"fir":"AYPM"},"AYOD":{"name":"Obura","lat":-6.5508,"lon":145.9745,"fir":"AYPM"},"AYOE":{"name":"Konge","lat":-6.223,"lon":147.2162,"fir":"AYPM"},"AYOF":{"name":"Ok Ao","lat":-5.557,"lon":141.0319,"fir":"AYPM"},"AYOG":{"name":"Ogeranang","lat":-6.4685,"lon":147.366,"fir":"AYPM"},"AYOH":{"name":"Okisai","lat":-4.7085,"lon":141.9,"fir":"AYPM"},"AYOI":{"name":"Boikoa","lat":-7.0383,"lon":145.7339,"fir":"AYPM"},"AYOJ":{"name":"Oksapmin","lat":-5.225,"lon":142.2223,"fir":"AYPM"},"AYOK":{"name":"Komako","lat":-7.3972,"lon":145.8833,"fir":"AYPM"},"AYOL":{"name":"Kol","lat":-5.7317,"lon":144.8473,"fir":"AYPM"},"AYOM":{"name":"Omora","lat":-7.8295,"lon":147.0815,"fir":"AYPM"},"AYON":{"name":"Konabe","lat":-5.4856,"lon":144.607,"fir":"AYPM"},"AYOP":{"name":"Kosipe","lat":-8.4333,"lon":147.2,"fir":"AYPM"},"AYOQ":{"name":"Komaio","lat":-7.272,"lon":143.5975,"fir":"AYPM"},"AYOR":{"name":"Kabori","lat":-3.323,"lon":141.8572,"fir":"AYPM"},"AYOS":{"name":"Kosimbi","lat":-3.95,"lon":143.1667,"fir":"AYPM"},"AYOT":{"name":"Kotakot","lat":-4.4667,"lon":145.3667,"fir":"AYPM"},"AYOU":{"name":"Kombaku","lat":-5.381,"lon":144.6362,"fir":"AYPM"},"AYOV":{"name":"Olsobip","lat":-5.3878,"lon":141.5158,"fir":"AYPM"},"AYOW":{"name":"Koroba","lat":-5.6917,"lon":142.7073,"fir":"AYPM"},"AYOX":{"name":"Moi","lat":-4.1562,"lon":141.242,"fir":"AYPM"},"AYOY":{"name":"Open Bay","lat":-4.7987,"lon":151.6943,"fir":"AYPM"},"AYOZ":{"name":"Kora","lat":-6.429,"lon":145.094,"fir":"AYPM"},"AYPA":{"name":"Somokopa","lat":-7.0847,"lon":142.5162,"fir":"AYPM"},"AYPB":{"name":"Paiela","lat":-5.3698,"lon":142.9767,"fir":"AYPM"},"AYPC":{"name":"Pangoa","lat":-7.0265,"lon":141.5588,"fir":"AYPM"},"AYPD":{"name":"Pindiu","lat":-6.4455,"lon":147.5185,"fir":"AYPM"},"AYPE":{"name":"April River","lat":-4.6789,"lon":142.5402,"fir":"AYPM"},"AYPG":{"name":"Pangia","lat":-6.381,"lon":144.107,"fir":"AYPM"},"AYPI":{"name":"Kapi","lat":-6.3686,"lon":144.6864,"fir":"AYPM"},"AYPJ":{"name":"Pimaga","lat":-6.4987,"lon":143.509,"fir":"AYPM"},"AYPK":{"name":"Pasinkap","lat":-5.0132,"lon":144.8422,"fir":"AYPM"},"AYPL":{"name":"Kapal","lat":-8.6282,"lon":142.8228,"fir":"AYPM"},"AYPN":{"name":"Pinero","lat":-6.5529,"lon":144.8553,"fir":"AYPM"},"AYPO":{"name":"Mapodo","lat":-7.9777,"lon":143.1702,"fir":"AYPM"},"AYPP":{"name":"Ponampa","lat":-6.5225,"lon":145.7733,"fir":"AYPM"},"AYPQ":{"name":"Pumani","lat":-9.749,"lon":149.4755,"fir":"AYPM"},"AYPR":{"name":"Purari","lat":-7.3889,"lon":145.1635,"fir":"AYPM"},"AYPS":{"name":"Maposi","lat":-4.5473,"lon":142.2207,"fir":"AYPM"},"AYPT":{"name":"Mt Kumbipota","lat":-5.455469,"lon":143.064048,"fir":"AYPM"},"AYPW":{"name":"Panakawa","lat":-7.6737,"lon":143.1205,"fir":"AYPM"},"AYPX":{"name":"Pukapuki","lat":-4.5373,"lon":142.518,"fir":"AYPM"},"AYPY":{"name":"Port Moresby Jacksons Intl","lat":-9.443383,"lon":147.22005,"fir":"AYPM"},"AYQA":{"name":"Karawari","lat":-4.5958,"lon":143.521,"fir":"AYPM"},"AYQB":{"name":"Simbari","lat":-6.9625,"lon":145.646,"fir":"AYPM"},"AYQE":{"name":"Mt Kerewa","lat":-6.052258,"lon":143.155327,"fir":"AYPM"},"AYQF":{"name":"Pad 41","lat":-6.41796,"lon":143.222694,"fir":"AYPM"},"AYQK":{"name":"Kumul Oil Rig","lat":-8.064465,"lon":144.5607,"fir":"AYPM"},"AYQL":{"name":"Tumolbil","lat":-4.7756,"lon":141.014,"fir":"AYPM"},"AYQM":{"name":"Simogu","lat":-6.8029,"lon":145.7143,"fir":"AYPM"},"AYQN":{"name":"Nob Nob","lat":-5.13989,"lon":145.77545,"fir":"AYPM"},"AYQO":{"name":"Sopu","lat":-8.3042,"lon":147.1662,"fir":"AYPM"},"AYQP":{"name":"Sipump","lat":-5.5052,"lon":144.4562,"fir":"AYPM"},"AYQQ":{"name":"Ononge","lat":-8.674,"lon":147.2627,"fir":"AYPM"},"AYQR":{"name":"Sorimi","lat":-4.3259,"lon":141.3767,"fir":"AYPM"},"AYQS":{"name":"Sialum","lat":-6.0912,"lon":147.5972,"fir":"AYPM"},"AYQT":{"name":"Northson","lat":-4.949991,"lon":151.372782,"fir":"AYPM"},"AYQU":{"name":"Tsumba","lat":-4.6603,"lon":144.608,"fir":"AYPM"},"AYQV":{"name":"Sinow","lat":-3.9899,"lon":141.5525,"fir":"AYPM"},"AYQW":{"name":"Sumwari","lat":-4.751,"lon":142.3687,"fir":"AYPM"},"AYQX":{"name":"Oreba","lat":-7.585635,"lon":146.707274,"fir":"AYPM"},"AYRA":{"name":"Kira","lat":-8.0648,"lon":147.3342,"fir":"AYPM"},"AYRD":{"name":"Rano","lat":-5.958833,"lon":151.166333,"fir":"AYPM"},"AYRE":{"name":"Raba Raba","lat":-9.973,"lon":149.834,"fir":"AYPM"},"AYRF":{"name":"Arufi","lat":-8.756,"lon":141.912,"fir":"AYPM"},"AYRG":{"name":"Rumginae","lat":-5.8949,"lon":141.271,"fir":"AYPM"},"AYRI":{"name":"Karimui","lat":-6.4954,"lon":144.828,"fir":"AYPM"},"AYRJ":{"name":"Mariama","lat":-4.6137,"lon":143.2463,"fir":"AYPM"},"AYRK":{"name":"Kairuku","lat":-8.817,"lon":146.5243,"fir":"AYPM"},"AYRL":{"name":"Maralina","lat":-6.9008,"lon":146.3685,"fir":"AYPM"},"AYRM":{"name":"Maramuni","lat":-5.1297,"lon":143.4828,"fir":"AYPM"},"AYRN":{"name":"Norambi","lat":-6.9109,"lon":145.6737,"fir":"AYPM"},"AYRO":{"name":"Kakoro","lat":-7.8355,"lon":146.5332,"fir":"AYPM"},"AYRQ":{"name":"Rum","lat":-5.3802,"lon":143.9982,"fir":"AYPM"},"AYRR":{"name":"Tiri","lat":-6.6813,"lon":144.1817,"fir":"AYPM"},"AYRS":{"name":"Mt Robinson","lat":-5.239025,"lon":141.184195,"fir":"AYPM"},"AYRT":{"name":"Kirinbit","lat":-4.2825,"lon":143.1505,"fir":"AYPM"},"AYRU":{"name":"Noru","lat":-6.5992,"lon":144.6455,"fir":"AYPM"},"AYRV":{"name":"May River","lat":-4.36,"lon":141.7872,"fir":"AYPM"},"AYRW":{"name":"Kiriwo","lat":-8.4376,"lon":141.5157,"fir":"AYPM"},"AYRY":{"name":"Mt Borogolo","lat":-9.834722,"lon":147.613889,"fir":"AYPM"},"AYSA":{"name":"Suabi","lat":-6.1038,"lon":142.276,"fir":"AYPM"},"AYSC":{"name":"Samban","lat":-4.3632,"lon":144.0629,"fir":"AYPM"},"AYSE":{"name":"Simberi Island","lat":-2.6575,"lon":151.9923,"fir":"AYPM"},"AYSF":{"name":"Safia","lat":-9.595,"lon":148.639,"fir":"AYPM"},"AYSG":{"name":"Sila","lat":-9.0635,"lon":148.3607,"fir":"AYPM"},"AYSH":{"name":"Sabah","lat":-5.5717,"lon":155.05,"fir":"AYPM"},"AYSI":{"name":"Seltamin","lat":-5.4167,"lon":141.8333,"fir":"AYPM"},"AYSJ":{"name":"Simbai","lat":-5.28,"lon":144.5449,"fir":"AYPM"},"AYSK":{"name":"Sengapi","lat":-5.1265,"lon":144.3242,"fir":"AYPM"},"AYSL":{"name":"Sehulea","lat":-9.961,"lon":151.1622,"fir":"AYPM"},"AYSM":{"name":"Samberigi","lat":-6.7208,"lon":143.9362,"fir":"AYPM"},"AYSN":{"name":"Assengseng","lat":-6.0232,"lon":149.7865,"fir":"AYPM"},"AYSO":{"name":"Selbang","lat":-5.3153,"lon":141.7505,"fir":"AYPM"},"AYSP":{"name":"Sapmanga","lat":-6.0765,"lon":146.812,"fir":"AYPM"},"AYSQ":{"name":"Sepik Plains","lat":-3.8883,"lon":143.6833,"fir":"AYPM"},"AYSR":{"name":"Sangera","lat":-3.9673,"lon":143.2752,"fir":"AYPM"},"AYSS":{"name":"Sasereme","lat":-7.6252,"lon":142.8706,"fir":"AYPM"},"AYST":{"name":"Sturt Island","lat":-8.155,"lon":142.2683,"fir":"AYPM"},"AYSU":{"name":"Suki","lat":-8.0435,"lon":141.7215,"fir":"AYPM"},"AYSV":{"name":"Sauren","lat":-5.9738,"lon":148.8513,"fir":"AYPM"},"AYSW":{"name":"Satwag","lat":-6.139,"lon":147.281,"fir":"AYPM"},"AYSX":{"name":"Masa","lat":-6.347,"lon":147.5917,"fir":"AYPM"},"AYSY":{"name":"Serra","lat":-2.9752,"lon":141.9258,"fir":"AYPM"},"AYSZ":{"name":"Samanzing","lat":-6.4522,"lon":147.0685,"fir":"AYPM"},"AYTA":{"name":"Tari","lat":-5.850166,"lon":142.951333,"fir":"AYPM"},"AYTB":{"name":"Tabubil","lat":-5.2845,"lon":141.2305,"fir":"AYPM"},"AYTC":{"name":"Tapila","lat":-8.4193,"lon":142.9059,"fir":"AYPM"},"AYTE":{"name":"Telefomin","lat":-5.1273,"lon":141.6403,"fir":"AYPM"},"AYTF":{"name":"Tetebedi","lat":-9.1602,"lon":148.068,"fir":"AYPM"},"AYTG":{"name":"Tagula","lat":-11.33,"lon":153.203,"fir":"AYPM"},"AYTH":{"name":"Tifalmin","lat":-5.1175,"lon":141.4172,"fir":"AYPM"},"AYTI":{"name":"Tapini","lat":-8.3582,"lon":146.9938,"fir":"AYPM"},"AYTJ":{"name":"Tadji","lat":-3.1979,"lon":142.4266,"fir":"AYPM"},"AYTK":{"name":"Tokua","lat":-4.3405,"lon":152.379667,"fir":"AYPM"},"AYTL":{"name":"Talbakul","lat":-6.3688,"lon":144.7162,"fir":"AYPM"},"AYTM":{"name":"Tamo","lat":-4.727,"lon":144.154,"fir":"AYPM"},"AYTN":{"name":"Tekin","lat":-5.2449,"lon":142.1646,"fir":"AYPM"},"AYTO":{"name":"Kamberatoro","lat":-3.5983,"lon":141.0512,"fir":"AYPM"},"AYTP":{"name":"Tep Tep","lat":-5.9537,"lon":146.5606,"fir":"AYPM"},"AYTQ":{"name":"Tapen","lat":-5.8563,"lon":146.6425,"fir":"AYPM"},"AYTR":{"name":"Tarabo","lat":-6.467,"lon":145.5295,"fir":"AYPM"},"AYTS":{"name":"Tsewi","lat":-7.0705,"lon":146.1258,"fir":"AYPM"},"AYTT":{"name":"Tarakpits","lat":-5.6137,"lon":141.0433,"fir":"AYPM"},"AYTU":{"name":"Tufi","lat":-9.076733,"lon":149.31715,"fir":"AYPM"},"AYTV":{"name":"Timbunke","lat":-4.1905,"lon":143.519,"fir":"AYPM"},"AYTW":{"name":"Tawa","lat":-7.448,"lon":146.1057,"fir":"AYPM"},"AYTX":{"name":"Matak","lat":-6.176,"lon":146.3928,"fir":"AYPM"},"AYTY":{"name":"Terapo","lat":-8.1708,"lon":146.1973,"fir":"AYPM"},"AYTZ":{"name":"Tekadu","lat":-7.6805,"lon":146.551,"fir":"AYPM"},"AYUA":{"name":"Utai","lat":-3.3883,"lon":141.585,"fir":"AYPM"},"AYUB":{"name":"Gubil","lat":-4.8809,"lon":141.5266,"fir":"AYPM"},"AYUC":{"name":"Umba","lat":-7.022,"lon":145.9665,"fir":"AYPM"},"AYUD":{"name":"Kais-Udave","lat":-8.782125,"lon":147.278626,"fir":"AYPM"},"AYUE":{"name":"Uroubi","lat":-9.5155,"lon":148.5618,"fir":"AYPM"},"AYUG":{"name":"Brugam","lat":-3.6388,"lon":142.8357,"fir":"AYPM"},"AYUI":{"name":"Buin","lat":-6.7333,"lon":155.6833,"fir":"AYPM"},"AYUJ":{"name":"Mukvi","lat":-8.2533,"lon":141.7653,"fir":"AYPM"},"AYUK":{"name":"Mukili","lat":-3.6852,"lon":142.3627,"fir":"AYPM"},"AYUL":{"name":"Musula","lat":-6.836,"lon":142.8989,"fir":"AYPM"},"AYUM":{"name":"Aumo","lat":-5.7312,"lon":148.4473,"fir":"AYPM"},"AYUN":{"name":"Bunam","lat":-4.6552,"lon":144.2545,"fir":"AYPM"},"AYUO":{"name":"Omaura","lat":-6.3672,"lon":145.9897,"fir":"AYPM"},"AYUP":{"name":"Gulgubip","lat":-5.279,"lon":141.5422,"fir":"AYPM"},"AYUQ":{"name":"Kumbwareta","lat":-5.5083,"lon":144.117,"fir":"AYPM"},"AYUR":{"name":"Upiara","lat":-8.5433,"lon":142.6522,"fir":"AYPM"},"AYUS":{"name":"Suame","lat":-8.3688,"lon":142.5848,"fir":"AYPM"},"AYUT":{"name":"Bunguwat","lat":-6.0023,"lon":146.7198,"fir":"AYPM"},"AYUU":{"name":"Bu'u","lat":-7.4025,"lon":145.815,"fir":"AYPM"},"AYUV":{"name":"Tuvau","lat":-6.606,"lon":145.9173,"fir":"AYPM"},"AYUW":{"name":"Auwi","lat":-5.5115,"lon":142.64,"fir":"AYPM"},"AYUX":{"name":"Usarumpia","lat":-6.9845,"lon":145.8116,"fir":"AYPM"},"AYUY":{"name":"Kuyol","lat":-5.3719,"lon":141.6257,"fir":"AYPM"},"AYUZ":{"name":"Uvol","lat":-6.0182,"lon":150.9558,"fir":"AYPM"},"AYVA":{"name":"Vailala","lat":-7.7723,"lon":145.335,"fir":"AYPM"},"AYVB":{"name":"Tobou","lat":-6.4025,"lon":147.4227,"fir":"AYPM"},"AYVK":{"name":"Wokien","lat":-3.771,"lon":141.9792,"fir":"AYPM"},"AYVL":{"name":"Talasea","lat":-5.283936,"lon":149.998197,"fir":"AYPM"},"AYVM":{"name":"Torembi","lat":-4.0118,"lon":143.1368,"fir":"AYPM"},"AYVN":{"name":"Vanimo","lat":-2.692122,"lon":141.302286,"fir":"AYPM"},"AYVO":{"name":"Tonu","lat":-6.654948,"lon":155.433098,"fir":"AYPM"},"AYVP":{"name":"Woposali","lat":-6.6582,"lon":144.2939,"fir":"AYPM"},"AYVU":{"name":"Murua","lat":-7.92798,"lon":145.847906,"fir":"AYPM"},"AYVV":{"name":"Vivigani","lat":-9.306389,"lon":150.32,"fir":"AYPM"},"AYVW":{"name":"Wuvulu","lat":-1.7372,"lon":142.8368,"fir":"AYPM"},"AYVX":{"name":"Toma","lat":-4.383737,"lon":152.195309,"fir":"AYPM"},"AYVY":{"name":"Yembi Yembi","lat":-4.472,"lon":143.1484,"fir":"AYPM"},"AYWA":{"name":"Asinuwa","lat":-7.0282,"lon":145.7697,"fir":"AYPM"},"AYWB":{"name":"Wabo","lat":-6.9883,"lon":145.0736,"fir":"AYPM"},"AYWC":{"name":"Wantoat","lat":-6.1348,"lon":146.4693,"fir":"AYPM"},"AYWD":{"name":"Wapenamanda","lat":-5.643303,"lon":143.895411,"fir":"AYPM"},"AYWE":{"name":"Wangeto","lat":-5.7407,"lon":146.1418,"fir":"AYPM"},"AYWF":{"name":"Wawoi Falls","lat":-6.9514,"lon":142.6548,"fir":"AYPM"},"AYWG":{"name":"Wanigela","lat":-9.3368,"lon":149.1525,"fir":"AYPM"},"AYWH":{"name":"Wanuma","lat":-4.8958,"lon":145.3213,"fir":"AYPM"},"AYWI":{"name":"Waktei","lat":-3.7145,"lon":141.8838,"fir":"AYPM"},"AYWJ":{"name":"Wapolu","lat":-9.3373,"lon":150.5095,"fir":"AYPM"},"AYWK":{"name":"Wewak","lat":-3.583828,"lon":143.669186,"fir":"AYPM"},"AYWL":{"name":"Walagu","lat":-6.3429,"lon":142.8255,"fir":"AYPM"},"AYWM":{"name":"Wasengla","lat":-3.2937,"lon":141.0737,"fir":"AYPM"},"AYWN":{"name":"Nugwaia","lat":-3.815,"lon":142.8342,"fir":"AYPM"},"AYWO":{"name":"Wonenara","lat":-6.7963,"lon":145.8905,"fir":"AYPM"},"AYWP":{"name":"Wanikipa","lat":-5.2567,"lon":142.5213,"fir":"AYPM"},"AYWQ":{"name":"Wakunai","lat":-5.8717,"lon":155.2333,"fir":"AYPM"},"AYWR":{"name":"Warakori","lat":-3.924,"lon":141.8788,"fir":"AYPM"},"AYWS":{"name":"Wasu","lat":-5.9617,"lon":147.197,"fir":"AYPM"},"AYWT":{"name":"Woitape","lat":-8.5498,"lon":147.2555,"fir":"AYPM"},"AYWU":{"name":"Wau","lat":-7.344,"lon":146.7225,"fir":"AYPM"},"AYWV":{"name":"Warasai","lat":-4.0102,"lon":142.5118,"fir":"AYPM"},"AYWW":{"name":"Owena","lat":-6.6968,"lon":145.8108,"fir":"AYPM"},"AYWX":{"name":"Wario","lat":-4.4045,"lon":142.2227,"fir":"AYPM"},"AYWY":{"name":"Waro","lat":-6.539,"lon":143.1977,"fir":"AYPM"},"AYWZ":{"name":"Walluanda","lat":-6.4737,"lon":143.99,"fir":"AYPM"},"AYXA":{"name":"Wiawia","lat":-7.1637,"lon":145.6315,"fir":"AYPM"},"AYXB":{"name":"Buluwo","lat":-3.6753,"lon":142.0162,"fir":"AYPM"},"AYXE":{"name":"Yeva","lat":-7.5512,"lon":146.1878,"fir":"AYPM"},"AYXG":{"name":"Sugu","lat":-6.3883,"lon":143.555,"fir":"AYPM"},"AYXH":{"name":"Yehebi","lat":-6.3938,"lon":142.2689,"fir":"AYPM"},"AYXI":{"name":"Sim","lat":-7.748,"lon":146.9273,"fir":"AYPM"},"AYXK":{"name":"Mt Kaimunga","lat":-5.717365,"lon":144.45613,"fir":"AYPM"},"AYXM":{"name":"Komo","lat":-6.063375,"lon":142.876806,"fir":"AYPM"},"AYXO":{"name":"Tol","lat":-4.9827,"lon":152.015,"fir":"AYPM"},"AYXP":{"name":"Wipim","lat":-8.7872,"lon":142.881,"fir":"AYPM"},"AYXS":{"name":"Sisamin","lat":-5.1361,"lon":142.2955,"fir":"AYPM"},"AYXT":{"name":"Watape","lat":-3.293,"lon":141.2912,"fir":"AYPM"},"AYXU":{"name":"Mt Takamunda","lat":-5.625809,"lon":143.899896,"fir":"AYPM"},"AYXW":{"name":"Weam","lat":-8.6176,"lon":141.1387,"fir":"AYPM"},"AYXY":{"name":"Yebil","lat":-3.4623,"lon":141.9543,"fir":"AYPM"},"AYYA":{"name":"Yabru","lat":-3.9698,"lon":141.1862,"fir":"AYPM"},"AYYB":{"name":"Wobagen","lat":-5.2733,"lon":142.0325,"fir":"AYPM"},"AYYC":{"name":"Yagiap","lat":-4.0189,"lon":143.2165,"fir":"AYPM"},"AYYD":{"name":"Yatoam","lat":-5.0942,"lon":142.3826,"fir":"AYPM"},"AYYE":{"name":"Yalumet","lat":-6.0919,"lon":147.0119,"fir":"AYPM"},"AYYF":{"name":"Yamuk","lat":-4.0692,"lon":143.201,"fir":"AYPM"},"AYYG":{"name":"Yemin","lat":-3.969,"lon":142.292,"fir":"AYPM"},"AYYI":{"name":"Yili","lat":-3.5333,"lon":142.1667,"fir":"AYPM"},"AYYJ":{"name":"Yanungen","lat":-3.4513,"lon":142.5377,"fir":"AYPM"},"AYYK":{"name":"Yenkisa","lat":-5.1082,"lon":143.9162,"fir":"AYPM"},"AYYL":{"name":"Timboli","lat":-4.0905,"lon":143.388,"fir":"AYPM"},"AYYM":{"name":"Munbil","lat":-4.857,"lon":141.221,"fir":"AYPM"},"AYYN":{"name":"Yimnalem","lat":-5.1437,"lon":144.5968,"fir":"AYPM"},"AYYO":{"name":"Oram","lat":-9.6327,"lon":148.0487,"fir":"AYPM"},"AYYP":{"name":"Yapsie","lat":-4.6288,"lon":141.0957,"fir":"AYPM"},"AYYQ":{"name":"Yagrombok","lat":-3.5865,"lon":142.6263,"fir":"AYPM"},"AYYR":{"name":"Yasuru","lat":-6.6018,"lon":146.1865,"fir":"AYPM"},"AYYS":{"name":"Musa","lat":-9.489345,"lon":148.626399,"fir":"AYPM"},"AYYT":{"name":"Mt Tawa","lat":-6.7304,"lon":144.3054,"fir":"AYPM"},"AYYU":{"name":"Mui","lat":-4.7936,"lon":144.315,"fir":"AYPM"},"AYYV":{"name":"Yawa","lat":-4.101,"lon":142.1365,"fir":"AYPM"},"AYYW":{"name":"Yawan","lat":-6.1352,"lon":146.8447,"fir":"AYPM"},"AYYX":{"name":"Yalum","lat":-5.2704,"lon":143.2829,"fir":"AYPM"},"AYYY":{"name":"Mt Yule","lat":-8.213308,"lon":146.785202,"fir":"AYPM"},"AYYZ":{"name":"Yambaitok","lat":-4.9955,"lon":143.9609,"fir":"AYPM"},"AYZA":{"name":"Zenang","lat":-6.9487,"lon":146.6127,"fir":"AYPM"},"AYZB":{"name":"Sibilanga","lat":-3.4466,"lon":142.5016,"fir":"AYPM"},"AYZH":{"name":"Tunnel Hill","lat":-4.191905,"lon":152.148572,"fir":"AYPM"},"AYZI":{"name":"Silur","lat":-4.5285,"lon":153.0532,"fir":"AYPM"},"AYZM":{"name":"Wasum","lat":-6.05,"lon":149.3408,"fir":"AYPM"},"AYZN":{"name":"Sissano","lat":-2.9987,"lon":142.0418,"fir":"AYPM"},"AYZQ":{"name":"Sopise","lat":-6.7895,"lon":144.1607,"fir":"AYPM"},"AYZS":{"name":"Ossima","lat":-2.9168,"lon":141.2988,"fir":"AYPM"},"AYZT":{"name":"Mt Strong","lat":-7.969174,"lon":146.946878,"fir":"AYPM"},"AYZU":{"name":"Oum","lat":-4.2663,"lon":142.129,"fir":"AYPM"},"AYZW":{"name":"Siawi","lat":-4.061,"lon":141.4198,"fir":"AYPM"},"AYZY":{"name":"Yilui","lat":-3.9295,"lon":142.2048,"fir":"AYPM"},"AYZZ":{"name":"Zuebak","lat":-6.3103,"lon":146.5578,"fir":"AYPM"},"BGAA":{"name":"Aasiaat","lat":68.721732,"lon":-52.786435,"fir":"BGGL"},"BGBW":{"name":"Narsarsuaq","lat":61.161111,"lon":-45.427778,"fir":"BGGL"},"BGCO":{"name":"Nerlerit Inaat","lat":70.741518,"lon":-22.648788,"fir":"BGGL"},"BGDB":{"name":"Daneborg","lat":74.3,"lon":-20.216667,"fir":"BGGL"},"BGDH":{"name":"Danmarkshavn","lat":76.766667,"lon":-18.666667,"fir":"BGGL"},"BGGH":{"name":"Nuuk","lat":64.190833,"lon":-51.678056,"fir":"BGGL"},"BGJN":{"name":"Ilulissat","lat":69.23306,"lon":-51.06639,"fir":"BGGL"},"BGKK":{"name":"Kulusuk","lat":65.58306,"lon":-37.14972,"fir":"BGGL"},"BGMQ":{"name":"Maniitsoq","lat":65.411331,"lon":-52.933198,"fir":"BGGL"},"BGMV":{"name":"Mestersvig","lat":72.233333,"lon":-23.916667,"fir":"BGGL"},"BGNO":{"name":"Station Nord","lat":81.608333,"lon":-16.678333,"fir":"BGGL"},"BGPC":{"name":"Ikerasassuaq","lat":60.057222,"lon":-43.159722,"fir":"BGGL"},"BGPT":{"name":"Paamiut","lat":62.012167,"lon":-49.670044,"fir":"BGGL"},"BGQQ":{"name":"Qaanaaq","lat":77.48865,"lon":-69.388731,"fir":"BGGL"},"BGSF":{"name":"Kangerlussuaq","lat":67.016944,"lon":-50.689167,"fir":"BGGL"},"BGSS":{"name":"Sisimiut","lat":66.951655,"lon":-53.722719,"fir":"BGGL"},"BGTL":{"name":"Thule A.B.","lat":76.530867,"lon":-68.705083,"fir":"BGGL"},"BGUK":{"name":"Upernavik","lat":72.789652,"lon":-56.129264,"fir":"BGGL"},"BGUQ":{"name":"Qaarsut","lat":70.733598,"lon":-52.693618,"fir":"BGGL"},"BIAR":{"name":"Akureyri","lat":65.656667,"lon":-18.071944,"fir":"BIRD"},"BIBA":{"name":"Bakki","lat":63.556111,"lon":-20.1375,"fir":"BIRD"},"BIBD":{"name":"Bildudalur","lat":65.641389,"lon":-23.546111,"fir":"BIRD"},"BIBL":{"name":"Blonduos","lat":65.645,"lon":-20.2875,"fir":"BIRD"},"BIBR":{"name":"Budardalur","lat":65.075278,"lon":-21.800278,"fir":"BIRD"},"BIDV":{"name":"Djupivogur","lat":64.644167,"lon":-14.282778,"fir":"BIRD"},"BIEG":{"name":"Egilsstadir","lat":65.283333,"lon":-14.401389,"fir":"BIRD"},"BIEH":{"name":"Einiholtsmelar","lat":64.25,"lon":-20.3,"fir":"BIRD"},"BIFL":{"name":"Fludir","lat":64.142778,"lon":-20.326111,"fir":"BIRD"},"BIFM":{"name":"Fagurholmsmyri","lat":63.874722,"lon":-16.641111,"fir":"BIRD"},"BIGF":{"name":"Grundarfjordur","lat":64.993056,"lon":-23.220278,"fir":"BIRD"},"BIGJ":{"name":"Gjogur","lat":65.995278,"lon":-21.326944,"fir":"BIRD"},"BIGR":{"name":"Grimsey","lat":66.546111,"lon":-18.017222,"fir":"BIRD"},"BIGS":{"name":"Grimsstadir","lat":65.6325,"lon":-16.148333,"fir":"BIRD"},"BIHE":{"name":"Herdubreidarlindir","lat":65.188611,"lon":-16.194722,"fir":"BIRD"},"BIHI":{"name":"Hveravellir","lat":64.886111,"lon":-19.4925,"fir":"BIRD"},"BIHK":{"name":"Holmavik","lat":65.704722,"lon":-21.696389,"fir":"BIRD"},"BIHL":{"name":"Hella","lat":63.835833,"lon":-20.3775,"fir":"BIRD"},"BIHN":{"name":"Hofn Hornafirdi","lat":64.295556,"lon":-15.227222,"fir":"BIRD"},"BIHU":{"name":"Husavik","lat":65.9525,"lon":-17.425833,"fir":"BIRD"},"BIHZ":{"name":"Husafell","lat":64.699722,"lon":-20.883611,"fir":"BIRD"},"BIIS":{"name":"Isafjordur","lat":66.058056,"lon":-23.135278,"fir":"BIRD"},"BIKA":{"name":"Kaldarmelar","lat":64.778889,"lon":-22.256944,"fir":"BIRD"},"BIKE":{"name":"Kerlingarfjoll","lat":64.705,"lon":-19.410556,"fir":"BIRD"},"BIKF":{"name":"Keflavik","lat":63.985,"lon":-22.605556,"fir":"BIRD"},"BIKL":{"name":"Kirkjubaejarklaustur","lat":63.790833,"lon":-18.001389,"fir":"BIRD"},"BIKP":{"name":"Kopasker","lat":66.310833,"lon":-16.466667,"fir":"BIRD"},"BIKR":{"name":"Saudarkrokur","lat":65.731667,"lon":-19.572778,"fir":"BIRD"},"BIMK":{"name":"Mulakot","lat":63.714167,"lon":-19.879167,"fir":"BIRD"},"BIMM":{"name":"Melgerdismelar","lat":65.483333,"lon":-18.166667,"fir":"BIRD"},"BIMS":{"name":"Tungubakkar Mosfellsbae","lat":64.181111,"lon":-21.707778,"fir":"BIRD"},"BIND":{"name":"Nyidalur","lat":64.720556,"lon":-18.066667,"fir":"BIRD"},"BINF":{"name":"Nordfjordur","lat":65.131667,"lon":-13.746944,"fir":"BIRD"},"BIOF":{"name":"Olafsfjordur","lat":66.083333,"lon":-18.666667,"fir":"BIRD"},"BIRE":{"name":"Reykholar","lat":65.449722,"lon":-22.23,"fir":"BIRD"},"BIRF":{"name":"Rif","lat":64.911389,"lon":-23.823056,"fir":"BIRD"},"BIRG":{"name":"Raufarhofn","lat":66.406389,"lon":-15.918333,"fir":"BIRD"},"BIRK":{"name":"Reykjavik","lat":64.13,"lon":-21.940556,"fir":"BIRD"},"BIRL":{"name":"Reykjahlid","lat":65.655833,"lon":-16.918056,"fir":"BIRD"},"BIRS":{"name":"Reykjanes","lat":65.914167,"lon":-22.421389,"fir":"BIRD"},"BISA":{"name":"Saudarflugvollir","lat":64.833333,"lon":-16.033333,"fir":"BIRD"},"BISE":{"name":"Sudureyri","lat":63.929167,"lon":-21.038056,"fir":"BIRD"},"BISF":{"name":"Selfoss","lat":63.929167,"lon":-21.037778,"fir":"BIRD"},"BISI":{"name":"Siglufjordur","lat":66.1384,"lon":-18.906894,"fir":"BIRD"},"BISK":{"name":"Skogasandur","lat":63.517222,"lon":-19.489167,"fir":"BIRD"},"BISL":{"name":"Skaftafell","lat":64.003889,"lon":-16.948056,"fir":"BIRD"},"BISR":{"name":"Storikroppur","lat":64.634444,"lon":-21.4875,"fir":"BIRD"},"BISS":{"name":"Sandskeid","lat":64.060833,"lon":-21.574722,"fir":"BIRD"},"BIST":{"name":"Stykkisholmur","lat":65.058056,"lon":-22.794167,"fir":"BIRD"},"BISV":{"name":"Skalavatn","lat":64.115833,"lon":-18.783333,"fir":"BIRD"},"BITE":{"name":"Thingeyri","lat":65.870278,"lon":-23.559722,"fir":"BIRD"},"BITM":{"name":"Thorsmork","lat":63.69,"lon":-19.563056,"fir":"BIRD"},"BITN":{"name":"Thorshofn","lat":66.218333,"lon":-15.334722,"fir":"BIRD"},"BIVI":{"name":"Vik","lat":63.421667,"lon":-18.888333,"fir":"BIRD"},"BIVM":{"name":"Vestmannaeyjar","lat":63.425,"lon":-20.279167,"fir":"BIRD"},"BIVO":{"name":"Vopnafjordur","lat":65.720556,"lon":-14.850556,"fir":"BIRD"},"BKPR":{"name":"Pristina","lat":42.572778,"lon":21.035833,"fir":"LYBA"},"CJV7":{"name":"Nibinamik - Summer Beaver","lat":52.708611,"lon":-88.541944,"fir":"CZWG"},"CKB6":{"name":"Angling Lake/Wapekeka","lat":53.849167,"lon":-89.579444,"fir":"CZWG"},"CKD9":{"name":"Slate Falls","lat":51.13,"lon":-91.665556,"fir":"CZWG"},"CKL3":{"name":"Wunnumin","lat":52.893889,"lon":-89.289167,"fir":"CZWG"},"CLM2":{"name":"Leamington","lat":42.024722,"lon":-82.525,"fir":"KZOB"},"CNA3":{"name":"Barrie - Springwater","lat":44.406389,"lon":-79.731667,"fir":"CZYZ"},"CNC3":{"name":"Brampton","lat":43.760278,"lon":-79.875,"fir":"CZYZ"},"CNE3":{"name":"Bearskin Lake","lat":53.965556,"lon":-91.027222,"fir":"CZWG"},"CNE4":{"name":"Iroquois Falls","lat":48.741667,"lon":-80.793333,"fir":"CZYZ"},"CNF4":{"name":"Lindsay","lat":44.364722,"lon":-78.783889,"fir":"CZYZ"},"CNK4":{"name":"Parry Sound","lat":45.2575,"lon":-79.829722,"fir":"CZYZ"},"CNL3":{"name":"Brockville Regional Tackaberry Airport","lat":44.639444,"lon":-75.750278,"fir":"CZUL"},"CNM4":{"name":"Stratford","lat":43.415556,"lon":-80.934444,"fir":"CZYZ"},"CNM5":{"name":"Kingfisher Lake","lat":53.0125,"lon":-89.855278,"fir":"CZWG"},"CNP3":{"name":"Arnprior","lat":45.413611,"lon":-76.365833,"fir":"CZUL"},"CNQ3":{"name":"Welland-Niagara Central","lat":42.979167,"lon":-79.324722,"fir":"CZYZ"},"CNQ4":{"name":"Tillsonburg","lat":42.926944,"lon":-80.749722,"fir":"CZYZ"},"CNS7":{"name":"Kincardine","lat":44.201389,"lon":-81.606667,"fir":"CZYZ"},"CNU4":{"name":"Belleville","lat":44.191673,"lon":-77.309997,"fir":"CZYZ"},"CNY3":{"name":"Collingwood","lat":44.449167,"lon":-80.158333,"fir":"CZYZ"},"CNZ3":{"name":"Chatham","lat":42.306389,"lon":-82.081944,"fir":"KZOB"},"CNZ8":{"name":"Grimsby","lat":43.16,"lon":-79.599167,"fir":"CZYZ"},"CPB9":{"name":"Baldwin","lat":44.266663,"lon":-79.339995,"fir":"CZYZ"},"CPF2":{"name":"Bar River","lat":46.420278,"lon":-84.092222,"fir":"CZYZ"},"CPN4":{"name":"Hanover","lat":44.158333,"lon":-81.062778,"fir":"CZYZ"},"CPR7":{"name":"Wingham","lat":43.8675,"lon":-81.298611,"fir":"CZYZ"},"CPV7":{"name":"Poplar Hill","lat":52.113333,"lon":-94.255556,"fir":"CZWG"},"CSC3":{"name":"Drummondville","lat":45.845278,"lon":-72.394721,"fir":"CZUL"},"CSD4":{"name":"Mont-Laurier","lat":46.564444,"lon":-75.577777,"fir":"CZUL"},"CSE4":{"name":"Lachute","lat":45.639444,"lon":-74.370555,"fir":"CZUL"},"CSF3":{"name":"Poste Montagnais","lat":51.888889,"lon":-65.714721,"fir":"CZUL"},"CSG3":{"name":"Joliette","lat":46.04472222,"lon":-73.50166667,"fir":"CZUL"},"CSH4":{"name":"Lebel-Sur-Quevillon","lat":49.030278,"lon":-77.017221,"fir":"CZUL"},"CSM3":{"name":"Thetford Mines","lat":46.051666,"lon":-71.257221,"fir":"CZUL"},"CSR3":{"name":"Victoriaville","lat":46.112778,"lon":-71.928888,"fir":"CZUL"},"CSR8":{"name":"La Sarre","lat":48.917221,"lon":-79.178611,"fir":"CZUL"},"CSU2":{"name":"Chisasibi","lat":53.805556,"lon":-78.916943,"fir":"CZUL"},"CSW5":{"name":"Montreal (Bell)","lat":45.685,"lon":-73.93111111,"fir":"CZUL"},"CTA4":{"name":"St. Bruno de Guigues","lat":47.449167,"lon":-79.418055,"fir":"CZUL"},"CTG3":{"name":"Du Rocher-Perce (Pabok)","lat":48.383333,"lon":-64.564443,"fir":"CZUL"},"CTH7":{"name":"Riviere-aux-Saumons","lat":49.4025,"lon":-62.303611,"fir":"CZUL"},"CTP9":{"name":"Kattiniq-Donaldson","lat":61.6625,"lon":-73.317221,"fir":"CZUL"},"CTT5":{"name":"La Romaine","lat":50.259722,"lon":-60.679443,"fir":"CZUL"},"CTU2":{"name":"Fontanges","lat":54.553611,"lon":-71.173332,"fir":"CZUL"},"CYAB":{"name":"Arctic Bay","lat":73.006386,"lon":-85.047318,"fir":"CZEG"},"CYAC":{"name":"Cat Lake","lat":51.727222,"lon":-91.824444,"fir":"CZWG"},"CYAD":{"name":"La Grande-3","lat":53.571667,"lon":-76.196388,"fir":"CZUL"},"CYAG":{"name":"Fort Frances","lat":48.654167,"lon":-93.439722,"fir":"KZMP"},"CYAH":{"name":"La Grande-4","lat":53.75,"lon":-73.66639,"fir":"CZUL"},"CYAJ":{"name":"Komakuk Beach","lat":69.58306,"lon":-140.18306,"fir":"CZEG"},"CYAL":{"name":"Alert Bay","lat":50.582318,"lon":-126.915785,"fir":"CZVR"},"CYAM":{"name":"Sault Ste Marie","lat":46.485,"lon":-84.509444,"fir":"CZYZ"},"CYAQ":{"name":"Kasabonika","lat":53.524722,"lon":-88.643056,"fir":"CZWG"},"CYAS":{"name":"Kangirsuk","lat":60.027222,"lon":-69.999166,"fir":"CZUL"},"CYAT":{"name":"Attawapiskat","lat":52.9275,"lon":-82.431944,"fir":"CZWG"},"CYAU":{"name":"South Shore Regional","lat":44.230454,"lon":-64.856183,"fir":"CZQM"},"CYAV":{"name":"St. Andrews","lat":50.056244,"lon":-97.032532,"fir":"CZWG"},"CYAW":{"name":"Halifax-Shearwater","lat":44.639722,"lon":-63.499444,"fir":"CZQM"},"CYAX":{"name":"Lac Du Bonnet","lat":50.294731,"lon":-96.00997,"fir":"CZWG"},"CYAY":{"name":"Saint Anthony","lat":51.391667,"lon":-56.084444,"fir":"CZQX"},"CYAZ":{"name":"Tofino","lat":49.082222,"lon":-125.7725,"fir":"CZVR"},"CYBA":{"name":"Banff","lat":51.200022,"lon":-115.534392,"fir":"CZEG"},"CYBB":{"name":"Pelly Bay","lat":68.53306,"lon":-89.81639,"fir":"CZEG"},"CYBC":{"name":"Baie-Comeau","lat":49.132222,"lon":-68.207222,"fir":"CZUL"},"CYBD":{"name":"Bella Coola","lat":52.38306,"lon":-126.58306,"fir":"CZVR"},"CYBE":{"name":"Uranium City","lat":59.561378,"lon":-108.481269,"fir":"CZEG"},"CYBF":{"name":"Bonnyville","lat":54.304778,"lon":-110.741232,"fir":"CZEG"},"CYBG":{"name":"CFB Bagotville","lat":48.330556,"lon":-70.996389,"fir":"CZUL"},"CYBK":{"name":"Baker Lake ","lat":64.29972,"lon":-96.08306,"fir":"CZEG"},"CYBL":{"name":"Campbell River","lat":49.950833,"lon":-125.270833,"fir":"CZVR"},"CYBP":{"name":"Brooks Regional","lat":50.63405,"lon":-111.926309,"fir":"CZEG"},"CYBQ":{"name":"Tadoule Lake","lat":58.706082,"lon":-98.512218,"fir":"CZWG"},"CYBR":{"name":"Brandon","lat":49.909722,"lon":-99.950833,"fir":"CZWG"},"CYBT":{"name":"Brochet","lat":57.889467,"lon":-101.679186,"fir":"CZWG"},"CYBU":{"name":"Nipawin","lat":53.33306,"lon":-104,"fir":"CZWG"},"CYBV":{"name":"Berens River","lat":52.35,"lon":-97.03306,"fir":"CZWG"},"CYBW":{"name":"Calgary-Springbank","lat":51.1,"lon":-114.36639,"fir":"CZEG"},"CYBX":{"name":"Lourdes-De-Blanc-Sablon","lat":51.443611,"lon":-57.185278,"fir":"CZUL"},"CYCA":{"name":"Cartwright","lat":53.68306,"lon":-57.03306,"fir":"CZQX"},"CYCB":{"name":"Cambridge Bay ","lat":69.09972,"lon":-105.11639,"fir":"CZEG"},"CYCC":{"name":"Cornwall","lat":45.092778,"lon":-74.567778,"fir":"KZBW"},"CYCD":{"name":"Nanaimo","lat":49.052222,"lon":-123.87,"fir":"CZVR"},"CYCE":{"name":"Centralia","lat":43.285556,"lon":-81.508333,"fir":"CZYZ"},"CYCG":{"name":"Castlegar","lat":49.296389,"lon":-117.6325,"fir":"CZVR"},"CYCH":{"name":"Chatham Can-Mil","lat":47.007778,"lon":-65.449167,"fir":"CZQM"},"CYCK":{"name":"Chatham-Kent","lat":42.306232,"lon":-82.081749,"fir":"CZYZ"},"CYCL":{"name":"Charlo","lat":47.990556,"lon":-66.331389,"fir":"CZQM"},"CYCN":{"name":"Cochrane","lat":49.105556,"lon":-81.013611,"fir":"CZYZ"},"CYCO":{"name":"Coppermine","lat":67.81667,"lon":-115.13306,"fir":"CZEG"},"CYCP":{"name":"Blue River","lat":52.13306,"lon":-119.29972,"fir":"CZVR"},"CYCQ":{"name":"Chetwynd","lat":55.7,"lon":-121.63306,"fir":"CZEG"},"CYCR":{"name":"Cross Lake (Charlie Sinclair Memorial)","lat":54.610917,"lon":-97.760196,"fir":"CZWG"},"CYCS":{"name":"Chesterfield Inlet","lat":63.33306,"lon":-90.71639,"fir":"CZEG"},"CYCT":{"name":"Coronation","lat":52.075056,"lon":-111.445306,"fir":"CZEG"},"CYCW":{"name":"Chilliwack","lat":49.153194,"lon":-121.939056,"fir":"CZVR"},"CYCX":{"name":"Gagetown Can-Mil","lat":45.83306,"lon":-66.43306,"fir":"CZQM"},"CYCY":{"name":"Clyde ","lat":70.48306,"lon":-68.51639,"fir":"CZEG"},"CYCZ":{"name":"Fairmont Hot Springs","lat":50.330164,"lon":-115.873453,"fir":"CZVR"},"CYDA":{"name":"Dawson","lat":64.04972,"lon":-139.13306,"fir":"CZEG"},"CYDB":{"name":"Burwash","lat":61.36667,"lon":-139.03306,"fir":"CZEG"},"CYDC":{"name":"Princeton","lat":49.4675,"lon":-120.511944,"fir":"CZEG"},"CYDF":{"name":"Deer Lake","lat":49.210833,"lon":-57.391389,"fir":"CZQX"},"CYDL":{"name":"Dease Lake","lat":58.422312,"lon":-130.031506,"fir":"CZEG"},"CYDM":{"name":"Ross River","lat":61.96667,"lon":-132.43306,"fir":"CZEG"},"CYDN":{"name":"Dauphin","lat":51.100833,"lon":-100.0525,"fir":"CZWG"},"CYDO":{"name":"Lac-Saint-Jean","lat":48.7785,"lon":-72.374999,"fir":"CZUL"},"CYDP":{"name":"Nain Nfld","lat":56.54972,"lon":-61.68306,"fir":"CZQX"},"CYDQ":{"name":"Dawson Creek","lat":55.741667,"lon":-120.181944,"fir":"CZEG"},"CYEA":{"name":"Empress","lat":50.933517,"lon":-110.013503,"fir":"CZEG"},"CYED":{"name":"Edmonton Namao","lat":53.66667,"lon":-113.46639,"fir":"CZEG"},"CYEE":{"name":"Midland","lat":44.684722,"lon":-79.929444,"fir":"CZYZ"},"CYEG":{"name":"Edmonton","lat":53.309722,"lon":-113.579722,"fir":"CZEG"},"CYEK":{"name":"Arviat","lat":61.1,"lon":-94.06639,"fir":"CZEG"},"CYEL":{"name":"Elliot Lake","lat":46.351389,"lon":-82.561389,"fir":"CZYZ"},"CYEM":{"name":"Manitowaning-East Manitoulin","lat":45.8425,"lon":-81.8575,"fir":"CZYZ"},"CYEN":{"name":"Estevan","lat":49.21667,"lon":-102.96639,"fir":"CZWG"},"CYER":{"name":"Fort Severn","lat":56.018889,"lon":-87.676111,"fir":"CZWG"},"CYES":{"name":"Edmundston","lat":47.489938,"lon":-68.481785,"fir":"CZUL"},"CYET":{"name":"Edson","lat":53.578889,"lon":-116.465,"fir":"CZEG"},"CYEU":{"name":"Eureka Man","lat":80,"lon":-85.81639,"fir":"CZEG"},"CYEV":{"name":"Inuvik","lat":68.304167,"lon":-133.482778,"fir":"CZEG"},"CYEY":{"name":"Amos/Magny","lat":48.563889,"lon":-78.249721,"fir":"CZUL"},"CYFA":{"name":"Fort Albany","lat":52.203611,"lon":-81.695833,"fir":"CZYZ"},"CYFB":{"name":"Iqaluit","lat":63.756389,"lon":-68.555833,"fir":"CZUL"},"CYFC":{"name":"Fredericton","lat":45.869444,"lon":-66.531667,"fir":"CZQM"},"CYFD":{"name":"Brantford","lat":43.131389,"lon":-80.3425,"fir":"CZYZ"},"CYFE":{"name":"Forestville","lat":48.746111,"lon":-69.097222,"fir":"CZUL"},"CYFH":{"name":"Fort Hope","lat":51.561962,"lon":-87.907715,"fir":"CZWG"},"CYFI":{"name":"Firebag","lat":57.275723,"lon":-110.976675,"fir":"CZEG"},"CYFJ":{"name":"La Macaza  Mont-Tremblant","lat":46.409444,"lon":-74.779999,"fir":"CZUL"},"CYFO":{"name":"Flin Flon","lat":54.678056,"lon":-101.681667,"fir":"CZEG"},"CYFR":{"name":"Fort Resolution","lat":61.18306,"lon":-113.68306,"fir":"CZEG"},"CYFS":{"name":"Fort Simpson","lat":61.760278,"lon":-121.236667,"fir":"CZEG"},"CYFT":{"name":"Makkovik","lat":55.08306,"lon":-59.18306,"fir":"CZQX"},"CYGB":{"name":"Gillies Bay","lat":49.694167,"lon":-124.517778,"fir":"CZVR"},"CYGD":{"name":"Goderich","lat":43.766944,"lon":-81.710556,"fir":"CZYZ"},"CYGE":{"name":"Golden","lat":51.29972,"lon":-116.98306,"fir":"CZEG"},"CYGH":{"name":"Fort Good Hope","lat":66.26667,"lon":-128.61639,"fir":"CZEG"},"CYGK":{"name":"Kingston","lat":44.225278,"lon":-76.596944,"fir":"CZUL"},"CYGL":{"name":"La Grande Riviere","lat":53.625278,"lon":-77.704167,"fir":"CZUL"},"CYGM":{"name":"Gimli Industrial","lat":50.61667,"lon":-97.03306,"fir":"CZWG"},"CYGO":{"name":"Gods Lake Narrows","lat":54.558382,"lon":-94.490856,"fir":"CZWG"},"CYGP":{"name":"Gaspe","lat":48.775278,"lon":-64.478611,"fir":"CZUL"},"CYGQ":{"name":"Greenstone/Geraldton","lat":49.7786944,"lon":-86.93855,"fir":"CZWG"},"CYGR":{"name":"Iles-De-La-Madeleine","lat":47.424722,"lon":-61.778056,"fir":"CZQM"},"CYGT":{"name":"Igloolik","lat":69.36667,"lon":-81.81639,"fir":"CZEG"},"CYGV":{"name":"Havre St-Pierre","lat":50.281944,"lon":-63.611389,"fir":"CZUL"},"CYGW":{"name":"Kuujjuarapik","lat":55.28306,"lon":-77.76639,"fir":"CZUL"},"CYGX":{"name":"Gillam","lat":56.35,"lon":-94.7,"fir":"CZEG"},"CYGZ":{"name":"Grise Fiord","lat":76.42585,"lon":-82.908085,"fir":"CZEG"},"CYHA":{"name":"Quaqtaq","lat":61.04972,"lon":-69.63306,"fir":"CZUL"},"CYHB":{"name":"Hudson Bay","lat":52.81667,"lon":-102.31639,"fir":"CZWG"},"CYHC":{"name":"Vancouver Harbour","lat":49.294444,"lon":-123.111389,"fir":"CZVR"},"CYHD":{"name":"Dryden","lat":49.831667,"lon":-92.744167,"fir":"CZWG"},"CYHE":{"name":"Hope ","lat":49.36667,"lon":-121.48306,"fir":"CZVR"},"CYHF":{"name":"Hearst","lat":49.713889,"lon":-83.686944,"fir":"CZYZ"},"CYHH":{"name":"Nemiscau","lat":51.690833,"lon":-76.134999,"fir":"CZUL"},"CYHI":{"name":"Holman Island","lat":70.76667,"lon":-117.79972,"fir":"CZEG"},"CYHK":{"name":"Gjoa Haven","lat":68.63306,"lon":-95.84972,"fir":"CZEG"},"CYHM":{"name":"Hamilton","lat":43.173056,"lon":-79.935,"fir":"CZYZ"},"CYHN":{"name":"Hornepayne","lat":49.193056,"lon":-84.758889,"fir":"CZYZ"},"CYHO":{"name":"Hopedale","lat":55.4488,"lon":-60.228092,"fir":"CZQX"},"CYHR":{"name":"Chevery","lat":50.468889,"lon":-59.636666,"fir":"CZUL"},"CYHS":{"name":"Saugeen Municipality","lat":44.158013,"lon":-81.063203,"fir":"CZYZ"},"CYHT":{"name":"Haines Junction","lat":60.789491,"lon":-137.545235,"fir":"CZEG"},"CYHU":{"name":"Montreal/MET","lat":45.5175,"lon":-73.416944,"fir":"CZUL"},"CYHY":{"name":"Hay River ","lat":60.838889,"lon":-115.776667,"fir":"CZEG"},"CYHZ":{"name":"Halifax Intl","lat":44.880833,"lon":-63.508611,"fir":"CZQM"},"CYIB":{"name":"Atikokan Municipal","lat":48.773889,"lon":-91.638611,"fir":"CZWG"},"CYID":{"name":"Annapolis Regional","lat":44.545888,"lon":-65.785733,"fir":"CZQM"},"CYIF":{"name":"St-Augustin","lat":51.211666,"lon":-58.658332,"fir":"CZUL"},"CYIK":{"name":"Ivujivik","lat":62.417333,"lon":-77.925277,"fir":"CZUL"},"CYIO":{"name":"Pond Inlet ","lat":72.7,"lon":-77.96639,"fir":"CZEG"},"CYIV":{"name":"Island Lake","lat":53.85,"lon":-94.65,"fir":"CZWG"},"CYJA":{"name":"Jasper","lat":52.996667,"lon":-118.059444,"fir":"CZEG"},"CYJF":{"name":"Fort Liard","lat":60.23306,"lon":-123.48306,"fir":"CZEG"},"CYJM":{"name":"Fort St. James (Perison)","lat":54.397222,"lon":-124.262778,"fir":"CZVR"},"CYJN":{"name":"St-Jean","lat":45.294445,"lon":-73.28111,"fir":"CZUL"},"CYJP":{"name":"Fort Providence","lat":61.31908,"lon":-117.606078,"fir":"CZEG"},"CYJQ":{"name":"Denny Island","lat":52.139819,"lon":-128.063586,"fir":"CZVR"},"CYJT":{"name":"Stephenville","lat":48.544167,"lon":-58.55,"fir":"CZQX"},"CYKA":{"name":"Kamloops ","lat":50.702222,"lon":-120.441944,"fir":"CZVR"},"CYKC":{"name":"Collins Bay","lat":58.23618,"lon":-103.677615,"fir":"CZEG"},"CYKD":{"name":"Aklavik","lat":68.21667,"lon":-135,"fir":"CZEG"},"CYKF":{"name":"Kitchener/Waterloo","lat":43.458889,"lon":-80.384444,"fir":"CZYZ"},"CYKG":{"name":"Kangiqsujuaq (Wakeham Bay)","lat":61.588611,"lon":-71.929443,"fir":"CZUL"},"CYKJ":{"name":"Key Lake","lat":57.25,"lon":-105.61639,"fir":"CZEG"},"CYKL":{"name":"Schefferville","lat":54.805556,"lon":-66.805833,"fir":"CZUL"},"CYKM":{"name":"Kincardine","lat":44.201408,"lon":-81.605692,"fir":"CZYZ"},"CYKO":{"name":"Akulivik","lat":60.81667,"lon":-78.15,"fir":"CZUL"},"CYKP":{"name":"Ogoki Post","lat":51.658698,"lon":-85.900997,"fir":"CZWG"},"CYKQ":{"name":"Waskaganish","lat":51.48306,"lon":-78.75,"fir":"CZUL"},"CYKX":{"name":"Kirkland Lake","lat":48.210278,"lon":-79.981389,"fir":"CZYZ"},"CYKY":{"name":"Kindersley","lat":51.51667,"lon":-109.16639,"fir":"CZWG"},"CYKZ":{"name":"Toronto-Buttonville","lat":43.862222,"lon":-79.37,"fir":"CZYZ"},"CYLA":{"name":"Aupaluk","lat":59.296944,"lon":-69.599721,"fir":"CZUL"},"CYLB":{"name":"Lac La Biche","lat":54.770414,"lon":-112.031778,"fir":"CZEG"},"CYLC":{"name":"Kimmirut A Nwt","lat":62.85,"lon":-69.88306,"fir":"CZEG"},"CYLD":{"name":"Chapleau","lat":47.82,"lon":-83.346667,"fir":"CZYZ"},"CYLH":{"name":"Lansdowne House","lat":52.195556,"lon":-87.934167,"fir":"CZWG"},"CYLI":{"name":"Lillooet","lat":50.674722,"lon":-121.893611,"fir":"CZVR"},"CYLJ":{"name":"Meadow Lake","lat":54.13306,"lon":-108.51639,"fir":"CZWG"},"CYLK":{"name":"Lutselk'E","lat":62.418195,"lon":-110.68224,"fir":"CZEG"},"CYLL":{"name":"Lloydminister","lat":53.309167,"lon":-110.0725,"fir":"CZEG"},"CYLQ":{"name":"La Tuque","lat":47.409722,"lon":-72.788889,"fir":"CZUL"},"CYLR":{"name":"Leaf Rapids","lat":56.513333,"lon":-99.985278,"fir":"CZWG"},"CYLS":{"name":"Barrie-Orillia (Lake Simcoe Regional)","lat":44.486111,"lon":-79.555556,"fir":"CZYZ"},"CYLT":{"name":"Alert","lat":82.51667,"lon":-62.28306,"fir":"CZEG"},"CYLU":{"name":"Kangiqsualujjuaq (Georges River)","lat":58.71667,"lon":-65.98306,"fir":"CZUL"},"CYLW":{"name":"Kelowna","lat":49.956111,"lon":-119.377778,"fir":"CZVR"},"CYMA":{"name":"Mayo","lat":63.61667,"lon":-135.86639,"fir":"CZEG"},"CYMD":{"name":"Mould Bay","lat":76.23306,"lon":-119.33306,"fir":"CZEG"},"CYME":{"name":"Matane/Russell-Burnett","lat":48.856945,"lon":-67.453332,"fir":"CZUL"},"CYMG":{"name":"Manitouwadge","lat":49.083889,"lon":-85.860556,"fir":"CZYZ"},"CYMH":{"name":"Mary's Harbour","lat":52.29972,"lon":-55.85,"fir":"CZQX"},"CYMJ":{"name":"Moose Jaw","lat":50.33,"lon":-105.558056,"fir":"CZWG"},"CYML":{"name":"Charlevoix","lat":47.5975,"lon":-70.223889,"fir":"CZUL"},"CYMM":{"name":"Fort Mcmurray","lat":56.652778,"lon":-111.221667,"fir":"CZEG"},"CYMO":{"name":"Moosonee","lat":51.291111,"lon":-80.607778,"fir":"CZYZ"},"CYMT":{"name":"Chibougamau/Chapais","lat":49.771667,"lon":-74.5275,"fir":"CZUL"},"CYMU":{"name":"Umiujaq","lat":56.53306,"lon":-76.51639,"fir":"CZUL"},"CYMW":{"name":"Maniwaki","lat":46.272778,"lon":-75.990555,"fir":"CZUL"},"CYMX":{"name":"Montreal Intl (Mirabel)","lat":45.679722,"lon":-74.038611,"fir":"CZUL"},"CYNA":{"name":"Natashquan","lat":50.189722,"lon":-61.789167,"fir":"CZUL"},"CYNC":{"name":"Wemindji","lat":53.010833,"lon":-78.830277,"fir":"CZUL"},"CYND":{"name":"Ottawa/Gatineau","lat":45.521389,"lon":-75.564167,"fir":"CZUL"},"CYNE":{"name":"Norway House","lat":53.96667,"lon":-97.83306,"fir":"CZWG"},"CYNH":{"name":"Hudsons Hope","lat":56.035511,"lon":-121.9757,"fir":"CZEG"},"CYNJ":{"name":"Langley Regional","lat":49.100945,"lon":-122.630736,"fir":"CZVR"},"CYNL":{"name":"Points North Landing","lat":58.276659,"lon":-104.082604,"fir":"CZEG"},"CYNM":{"name":"Matagami","lat":49.761389,"lon":-77.8025,"fir":"CZUL"},"CYNN":{"name":"Nejanilini Lake","lat":59.485185,"lon":-97.78103,"fir":"CZWG"},"CYNR":{"name":"Horizon","lat":57.381553,"lon":-111.701117,"fir":"CZEG"},"CYOA":{"name":"Ekati","lat":64.698998,"lon":-110.614605,"fir":"CZEG"},"CYOC":{"name":"Old Crow","lat":67.56667,"lon":-139.81639,"fir":"CZEG"},"CYOD":{"name":"Cold Lake","lat":54.405,"lon":-110.279444,"fir":"CZEG"},"CYOH":{"name":"Oxford House","lat":54.933169,"lon":-95.278947,"fir":"CZWG"},"CYOJ":{"name":"High Level","lat":58.621389,"lon":-117.164722,"fir":"CZEG"},"CYOO":{"name":"Oshawa","lat":43.922778,"lon":-78.895,"fir":"CZYZ"},"CYOP":{"name":"Rainbow Lake","lat":58.491094,"lon":-119.406641,"fir":"CZEG"},"CYOS":{"name":"Owen Sound","lat":44.590278,"lon":-80.8375,"fir":"CZYZ"},"CYOW":{"name":"Ottawa/Macdonald-Cartier Intl","lat":45.3225,"lon":-75.669167,"fir":"CZUL"},"CYOY":{"name":"Valcartier (W/C J.H.L. (Joe) Lecomte) ","lat":46.89972,"lon":-71.5,"fir":"CZUL"},"CYPA":{"name":"Prince Albert","lat":53.214167,"lon":-105.672778,"fir":"CZWG"},"CYPC":{"name":"Paulatuk","lat":69.34972,"lon":-124.03306,"fir":"CZEG"},"CYPD":{"name":"Port Hawkesbury","lat":45.656667,"lon":-61.368056,"fir":"CZQM"},"CYPE":{"name":"Peace River","lat":56.226944,"lon":-117.447222,"fir":"CZEG"},"CYPG":{"name":"Portage Southport","lat":49.902778,"lon":-98.274722,"fir":"CZWG"},"CYPH":{"name":"Inukjuak","lat":58.471667,"lon":-78.077221,"fir":"CZUL"},"CYPK":{"name":"Pitt Meadows","lat":49.216088,"lon":-122.713397,"fir":"CZVR"},"CYPL":{"name":"Pickle Lake","lat":51.446389,"lon":-90.214167,"fir":"CZWG"},"CYPM":{"name":"Pikangikum","lat":51.819722,"lon":-93.973333,"fir":"CZWG"},"CYPN":{"name":"Port-Menier","lat":49.836389,"lon":-64.288611,"fir":"CZUL"},"CYPO":{"name":"Peawanuck","lat":54.988056,"lon":-85.44333,"fir":"CZWG"},"CYPP":{"name":"Parent","lat":47.931944,"lon":-74.608056,"fir":"CZUL"},"CYPQ":{"name":"Peterborough","lat":44.23,"lon":-78.363333,"fir":"CZYZ"},"CYPR":{"name":"Prince Rupert ","lat":54.286111,"lon":-130.444722,"fir":"CZVR"},"CYPS":{"name":"Pemberton","lat":50.3025,"lon":-122.737778,"fir":"CZVR"},"CYPT":{"name":"Pelee Island","lat":41.778333,"lon":-82.678056,"fir":"KZOB"},"CYPU":{"name":"Puntzi Mountain","lat":52.112833,"lon":-124.144767,"fir":"CZVR"},"CYPW":{"name":"Powell River","lat":49.834167,"lon":-124.5,"fir":"CZVR"},"CYPX":{"name":"Puvirnituq","lat":60.04972,"lon":-77.28306,"fir":"CZUL"},"CYPY":{"name":"Fort Chipewyan","lat":58.767222,"lon":-111.117222,"fir":"CZEG"},"CYPZ":{"name":"Burns Lake","lat":54.383333,"lon":-125.95,"fir":"CZVR"},"CYQA":{"name":"Muskoka","lat":44.974722,"lon":-79.303333,"fir":"CZYZ"},"CYQB":{"name":"Quebec/Jean Lesage Intl","lat":46.793889,"lon":-71.393889,"fir":"CZUL"},"CYQD":{"name":"The Pas","lat":53.971944,"lon":-101.091944,"fir":"CZWG"},"CYQF":{"name":"Red Deer","lat":52.178611,"lon":-113.893056,"fir":"CZEG"},"CYQG":{"name":"Windsor","lat":42.274722,"lon":-82.958333,"fir":"CZYZ"},"CYQH":{"name":"Watson Lake","lat":60.117778,"lon":-128.821944,"fir":"CZEG"},"CYQI":{"name":"Yarmouth","lat":43.826944,"lon":-66.088056,"fir":"CZQM"},"CYQK":{"name":"Kenora","lat":49.788333,"lon":-94.363056,"fir":"CZWG"},"CYQL":{"name":"Lethbridge","lat":49.630278,"lon":-112.799722,"fir":"CZEG"},"CYQM":{"name":"Moncton","lat":46.112222,"lon":-64.6825,"fir":"CZQM"},"CYQN":{"name":"Nakina","lat":50.182778,"lon":-86.696389,"fir":"CZYZ"},"CYQQ":{"name":"Comox","lat":49.710833,"lon":-124.886667,"fir":"CZVR"},"CYQR":{"name":"Regina","lat":50.431944,"lon":-104.665833,"fir":"CZWG"},"CYQS":{"name":"St. Thomas","lat":42.77,"lon":-81.110833,"fir":"CZWG"},"CYQT":{"name":"Thunder Bay","lat":48.371944,"lon":-89.323889,"fir":"CZWG"},"CYQU":{"name":"Grande Prairie","lat":55.179722,"lon":-118.885,"fir":"CZEG"},"CYQV":{"name":"Yorkton","lat":51.264722,"lon":-102.461667,"fir":"CZWG"},"CYQW":{"name":"North Battleford","lat":52.769167,"lon":-108.243611,"fir":"CZWG"},"CYQX":{"name":"Gander","lat":48.94,"lon":-54.568611,"fir":"CZQX"},"CYQY":{"name":"Sydney ","lat":46.161389,"lon":-60.047778,"fir":"CZQM"},"CYQZ":{"name":"Quesnel","lat":53.026111,"lon":-122.51,"fir":"CZVR"},"CYRA":{"name":"Rae Lakes","lat":64.116152,"lon":-117.309752,"fir":"CZEG"},"CYRB":{"name":"Resolute ","lat":74.71667,"lon":-94.98306,"fir":"CZEG"},"CYRC":{"name":"Chicoutimi/St-Honore","lat":48.520833,"lon":-71.050555,"fir":"CZUL"},"CYRI":{"name":"Riviere-Du-Loup","lat":47.764444,"lon":-69.584721,"fir":"CZUL"},"CYRJ":{"name":"Roberval","lat":48.52,"lon":-72.265556,"fir":"CZUL"},"CYRL":{"name":"Red Lake","lat":51.066944,"lon":-93.793056,"fir":"CZWG"},"CYRM":{"name":"Rocky Mountain House","lat":52.429722,"lon":-114.904444,"fir":"CZEG"},"CYRO":{"name":"Rockcliffe","lat":45.460685,"lon":-75.643267,"fir":"CZUL"},"CYRP":{"name":"Ottawa/Carp","lat":45.3225,"lon":-76.022222,"fir":"CZUL"},"CYRQ":{"name":"Trois-Rivieres","lat":46.352779,"lon":-72.679443,"fir":"CZUL"},"CYRS":{"name":"Red Sucker Lake","lat":54.167401,"lon":-93.557435,"fir":"CZWG"},"CYRT":{"name":"Rankin Inlet ","lat":62.811389,"lon":-92.115833,"fir":"CZEG"},"CYRV":{"name":"Revelstoke ","lat":50.96667,"lon":-118.18306,"fir":"CZVR"},"CYSA":{"name":"Sable Island","lat":43.93306,"lon":-60,"fir":"CZQM"},"CYSB":{"name":"Sudbury","lat":46.625,"lon":-80.798889,"fir":"CZYZ"},"CYSC":{"name":"Sherbrooke","lat":45.438056,"lon":-71.690556,"fir":"CZUL"},"CYSD":{"name":"Suffield","lat":50.26667,"lon":-111.18306,"fir":"CZEG"},"CYSE":{"name":"Squamish","lat":49.781786,"lon":-123.161903,"fir":"CZVR"},"CYSF":{"name":"Stony Rapids","lat":59.25,"lon":-105.83306,"fir":"CZEG"},"CYSG":{"name":"St-Georges","lat":46.096389,"lon":-70.714721,"fir":"CZUL"},"CYSH":{"name":"Smiths Falls-Montague (Russ Beach)","lat":44.945833,"lon":-75.940556,"fir":"CZUL"},"CYSJ":{"name":"Saint John","lat":45.316111,"lon":-65.890278,"fir":"CZQM"},"CYSK":{"name":"Sanikiluaq","lat":56.53306,"lon":-79.25,"fir":"CZUL"},"CYSL":{"name":"Saint Leonard","lat":47.1575,"lon":-67.834722,"fir":"CZQM"},"CYSM":{"name":"Fort Smith ","lat":60.022222,"lon":-111.960278,"fir":"CZEG"},"CYSN":{"name":"Saint Catharines","lat":43.191667,"lon":-79.171667,"fir":"CZYZ"},"CYSP":{"name":"Marathon","lat":48.755278,"lon":-86.344444,"fir":"CZWG"},"CYSQ":{"name":"Atlin","lat":59.576441,"lon":-133.671372,"fir":"CZEG"},"CYSR":{"name":"Nanisivik","lat":72.98306,"lon":-84.63306,"fir":"CZEG"},"CYST":{"name":"St. Theresa Point","lat":53.845497,"lon":-94.852185,"fir":"CZWG"},"CYSU":{"name":"Summerside","lat":46.439167,"lon":-63.831389,"fir":"CZQM"},"CYSW":{"name":"Elk Valley","lat":49.833356,"lon":-114.884353,"fir":"CZEG"},"CYSY":{"name":"Sachs Harbour","lat":72,"lon":-125.28306,"fir":"CZEG"},"CYSZ":{"name":"Ste-Anne-des-Monts","lat":49.120277,"lon":-66.529166,"fir":"CZUL"},"CYTA":{"name":"Pembroke","lat":45.864444,"lon":-77.251667,"fir":"CZUL"},"CYTB":{"name":"Tillsonburg","lat":42.926488,"lon":-80.747071,"fir":"CZYZ"},"CYTE":{"name":"Cape Dorset ","lat":64.21667,"lon":-76.53306,"fir":"CZEG"},"CYTF":{"name":"Alma","lat":48.508888,"lon":-71.641944,"fir":"CZUL"},"CYTH":{"name":"Thompson","lat":55.804632,"lon":-97.86241,"fir":"CZWG"},"CYTL":{"name":"Big Trout Lake","lat":53.8178,"lon":-89.896916,"fir":"CZWG"},"CYTN":{"name":"Trenton","lat":45.611819,"lon":-62.621119,"fir":"CZQM"},"CYTQ":{"name":"Tasiujaq","lat":58.66766,"lon":-69.95577,"fir":"CZUL"},"CYTR":{"name":"Trenton","lat":44.118889,"lon":-77.528056,"fir":"CZYZ"},"CYTS":{"name":"Timmins","lat":48.569722,"lon":-81.376667,"fir":"CZYZ"},"CYTZ":{"name":"Toronto-Billy Bishop","lat":43.6275,"lon":-79.396111,"fir":"CZYZ"},"CYUA":{"name":"Shingle Point","lat":68.95,"lon":-137.21639,"fir":"CZEG"},"CYUB":{"name":"Tuktoyaktuk","lat":69.45,"lon":-133.01639,"fir":"CZEG"},"CYUI":{"name":"Cape Young","lat":68.93306,"lon":-116.91639,"fir":"CZEG"},"CYUJ":{"name":"Lady Franklin Point ","lat":68.5,"lon":-113.21639,"fir":"CZEG"},"CYUK":{"name":"Byron Bay","lat":68.75,"lon":-109.06639,"fir":"CZEG"},"CYUL":{"name":"Montreal/Pierre Elliott Trudeau Intl","lat":45.468056,"lon":-73.741389,"fir":"CZUL"},"CYUQ":{"name":"Jenny Lind Island","lat":68.65,"lon":-101.73306,"fir":"CZEG"},"CYUS":{"name":"Shepherd Bay ","lat":68.81667,"lon":-93.43306,"fir":"CZEG"},"CYUT":{"name":"Repulse Bay","lat":66.53306,"lon":-86.25,"fir":"CZEG"},"CYUV":{"name":"Longstaff","lat":68.93306,"lon":-75.28306,"fir":"CZEG"},"CYUX":{"name":"Hall Beach ","lat":68.78306,"lon":-81.25,"fir":"CZEG"},"CYUY":{"name":"Rouyn-Noranda","lat":48.206667,"lon":-78.833889,"fir":"CZUL"},"CYVB":{"name":"Bonaventure","lat":48.071111,"lon":-65.460277,"fir":"CZUL"},"CYVC":{"name":"La Ronge","lat":55.151389,"lon":-105.261944,"fir":"CZEG"},"CYVD":{"name":"R.J. (Bob) Andrew Field Regional","lat":49.878206,"lon":-100.918212,"fir":"CZWG"},"CYVG":{"name":"Vermilion","lat":53.356869,"lon":-110.824828,"fir":"CZEG"},"CYVK":{"name":"Vernon","lat":50.246177,"lon":-119.330866,"fir":"CZVR"},"CYVL":{"name":"Tommy Kochon","lat":67.02118,"lon":-126.128621,"fir":"CZEG"},"CYVM":{"name":"Broughton Island","lat":67.54972,"lon":-64.03306,"fir":"CZEG"},"CYVO":{"name":"Val-D'Or","lat":48.053889,"lon":-77.7825,"fir":"CZUL"},"CYVP":{"name":"Kuujjuaq","lat":58.096111,"lon":-68.426944,"fir":"CZUL"},"CYVQ":{"name":"Norman Wells ","lat":65.2825,"lon":-126.800278,"fir":"CZEG"},"CYVR":{"name":"Vancouver","lat":49.195,"lon":-123.181944,"fir":"CZVR"},"CYVT":{"name":"Buffalo Narrows","lat":55.838889,"lon":-108.425833,"fir":"CZEG"},"CYVV":{"name":"Wiarton","lat":44.745833,"lon":-81.107222,"fir":"CZYZ"},"CYVZ":{"name":"Deer Lake","lat":52.655833,"lon":-94.061389,"fir":"CZWG"},"CYWA":{"name":"Petawawa","lat":45.95,"lon":-77.31639,"fir":"CZUL"},"CYWE":{"name":"Wekweeti","lat":64.190756,"lon":-114.076804,"fir":"CZEG"},"CYWG":{"name":"Winnipeg","lat":49.910833,"lon":-97.243333,"fir":"CZWG"},"CYWH":{"name":"Victoria Harbour","lat":48.41667,"lon":-123.33306,"fir":"CZVR"},"CYWJ":{"name":"Fort Franklin","lat":65.2,"lon":-123.43306,"fir":"CZEG"},"CYWK":{"name":"Wabush","lat":52.921944,"lon":-66.864444,"fir":"CZUL"},"CYWL":{"name":"Williams Lake ","lat":52.183056,"lon":-122.054167,"fir":"CZVR"},"CYWM":{"name":"Athabasca","lat":54.742926,"lon":-113.205209,"fir":"CZEG"},"CYWN":{"name":"Wainwright (Field 21)","lat":52.830556,"lon":-111.100556,"fir":"CZEG"},"CYWP":{"name":"Webequie","lat":52.959381,"lon":-87.375234,"fir":"CZWG"},"CYWV":{"name":"Wainwright","lat":52.79972,"lon":-110.88306,"fir":"CZEG"},"CYWY":{"name":"Wrigley","lat":63.21667,"lon":-123.43306,"fir":"CZEG"},"CYXC":{"name":"Cranbrook ","lat":49.610278,"lon":-115.7825,"fir":"CZVR"},"CYXD":{"name":"Edmonton","lat":53.5725,"lon":-113.520556,"fir":"CZEG"},"CYXE":{"name":"Saskatoon","lat":52.170833,"lon":-106.699722,"fir":"CZWG"},"CYXH":{"name":"Medicine Hat","lat":50.018889,"lon":-110.720833,"fir":"CZEG"},"CYXJ":{"name":"Fort St John ","lat":56.238056,"lon":-120.740278,"fir":"CZEG"},"CYXK":{"name":"Rimouski","lat":48.478056,"lon":-68.496943,"fir":"CZUL"},"CYXL":{"name":"Sioux Lookout","lat":50.114444,"lon":-91.904167,"fir":"CZWG"},"CYXN":{"name":"Whale Cove","lat":62.23306,"lon":-92.59972,"fir":"CZEG"},"CYXP":{"name":"Pangnirtung","lat":66.15,"lon":-65.71639,"fir":"CZEG"},"CYXQ":{"name":"Beaver Creek","lat":62.41667,"lon":-140.86639,"fir":"CZEG"},"CYXR":{"name":"Earlton","lat":47.695,"lon":-79.848889,"fir":"CZYZ"},"CYXS":{"name":"Prince George ","lat":53.889444,"lon":-122.678889,"fir":"CZVR"},"CYXT":{"name":"Terrace ","lat":54.466389,"lon":-128.5775,"fir":"CZVR"},"CYXU":{"name":"London","lat":43.035556,"lon":-81.153889,"fir":"CZYZ"},"CYXX":{"name":"Abbotsford ","lat":49.025278,"lon":-122.363333,"fir":"CZVR"},"CYXY":{"name":"Whitehorse","lat":60.71,"lon":-135.068333,"fir":"CZEG"},"CYXZ":{"name":"Wawa","lat":47.966667,"lon":-84.786667,"fir":"CZYZ"},"CYYB":{"name":"North Bay","lat":46.363611,"lon":-79.422778,"fir":"CZYZ"},"CYYC":{"name":"Calgary","lat":51.113889,"lon":-114.020278,"fir":"CZEG"},"CYYD":{"name":"Smithers ","lat":54.824722,"lon":-127.182778,"fir":"CZVR"},"CYYE":{"name":"Fort Nelson ","lat":58.836944,"lon":-122.596667,"fir":"CZEG"},"CYYF":{"name":"Penticton ","lat":49.463056,"lon":-119.601667,"fir":"CZVR"},"CYYG":{"name":"Charlottetown","lat":46.29,"lon":-63.121111,"fir":"CZQM"},"CYYH":{"name":"Spence Bay","lat":69.54972,"lon":-93.58306,"fir":"CZEG"},"CYYJ":{"name":"Victoria Intl.","lat":48.646944,"lon":-123.425833,"fir":"CZVR"},"CYYL":{"name":"Lynn Lake","lat":56.863889,"lon":-101.076111,"fir":"CZEG"},"CYYM":{"name":"Cowley","lat":49.636389,"lon":-114.094444,"fir":"CZEG"},"CYYN":{"name":"Swift Current","lat":50.291944,"lon":-107.690556,"fir":"CZWG"},"CYYO":{"name":"W.B. Needham Field","lat":51.810009,"lon":-104.169894,"fir":"CZWG"},"CYYQ":{"name":"Churchill","lat":58.737222,"lon":-94.057222,"fir":"CZEG"},"CYYR":{"name":"Goose","lat":53.319167,"lon":-60.425833,"fir":"CZQX"},"CYYT":{"name":"St.Johns","lat":47.618611,"lon":-52.751944,"fir":"CZQX"},"CYYU":{"name":"Kapuskasing","lat":49.411667,"lon":-82.468889,"fir":"CZYZ"},"CYYW":{"name":"Armstrong","lat":50.29394,"lon":-88.9101,"fir":"CZWG"},"CYYY":{"name":"Mont-Joli","lat":48.608611,"lon":-68.208056,"fir":"CZUL"},"CYYZ":{"name":"Toronto-Pearson Intl","lat":43.677222,"lon":-79.630556,"fir":"CZYZ"},"CYZD":{"name":"Toronto-Downsview","lat":43.742778,"lon":-79.465556,"fir":"CZYZ"},"CYZE":{"name":"Gore Bay-Manitoulin","lat":45.885278,"lon":-82.567778,"fir":"CZYZ"},"CYZF":{"name":"Yellowknife ","lat":62.462778,"lon":-114.440278,"fir":"CZEG"},"CYZG":{"name":"Salluit","lat":62.179167,"lon":-75.666943,"fir":"CZUL"},"CYZH":{"name":"Slave Lake","lat":55.293056,"lon":-114.777222,"fir":"CZEG"},"CYZP":{"name":"Sandspit ","lat":53.254167,"lon":-131.813889,"fir":"CZVR"},"CYZR":{"name":"Sarnia","lat":42.999444,"lon":-82.308889,"fir":"CZYZ"},"CYZS":{"name":"Coral Harbour","lat":64.2,"lon":-83.36639,"fir":"CZEG"},"CYZT":{"name":"Port Hardy ","lat":50.680278,"lon":-127.366111,"fir":"CZVR"},"CYZU":{"name":"Whitecourt","lat":54.143889,"lon":-115.786667,"fir":"CZEG"},"CYZV":{"name":"Sept-Iles","lat":50.224167,"lon":-66.266111,"fir":"CZUL"},"CYZW":{"name":"Teslin","lat":60.16667,"lon":-132.73306,"fir":"CZEG"},"CYZX":{"name":"Greenwood ","lat":44.984444,"lon":-64.916944,"fir":"CZQM"},"CYZY":{"name":"Mackenzie ","lat":55.29972,"lon":-123.13306,"fir":"CZVR"},"CZAC":{"name":"York Landing","lat":56.089536,"lon":-96.089203,"fir":"CZWG"},"CZAM":{"name":"Salmon Arm","lat":50.682533,"lon":-119.228625,"fir":"CZVR"},"CZBA":{"name":"Burlington","lat":43.441667,"lon":-79.850278,"fir":"CZYZ"},"CZBB":{"name":"Boundary Bay","lat":49.073468,"lon":-123.008396,"fir":"CZVR"},"CZBD":{"name":"Ilford","lat":56.051583,"lon":-95.617964,"fir":"CZWG"},"CZBF":{"name":"Bathurst","lat":47.629494,"lon":-65.740208,"fir":"CZQM"},"CZBM":{"name":"Bromont (Roland Desourdy)","lat":45.290833,"lon":-72.741385,"fir":"CZUL"},"CZEE":{"name":"Kelsey","lat":56.036786,"lon":-96.506139,"fir":"CZWG"},"CZEM":{"name":"Eastmain River","lat":52.23306,"lon":-78.51639,"fir":"CZUL"},"CZFA":{"name":"Faro","lat":62.2,"lon":-133.36639,"fir":"CZEG"},"CZFD":{"name":"Fond-Du-Lac","lat":59.334517,"lon":-107.182074,"fir":"CZEG"},"CZFG":{"name":"Pukatawagan","lat":55.749106,"lon":-101.266242,"fir":"CZWG"},"CZFM":{"name":"Fort Mcpherson","lat":67.4,"lon":-134.84972,"fir":"CZEG"},"CZFN":{"name":"Fort Norman","lat":64.91667,"lon":-125.56639,"fir":"CZEG"},"CZGF":{"name":"Grand Forks","lat":49.015556,"lon":-118.430556,"fir":"CZVR"},"CZGI":{"name":"Gods River","lat":54.839703,"lon":-94.078696,"fir":"CZWG"},"CZGR":{"name":"Little Grand Rapids","lat":52.044861,"lon":-95.466197,"fir":"CZWG"},"CZHP":{"name":"High Prairie","lat":55.393551,"lon":-116.475827,"fir":"CZEG"},"CZJG":{"name":"Jenpeg","lat":54.518979,"lon":-98.04605,"fir":"CZWG"},"CZJN":{"name":"Swan River","lat":52.121494,"lon":-101.234431,"fir":"CZWG"},"CZKE":{"name":"Kaschechewan","lat":52.2825,"lon":-81.677778,"fir":"CZYZ"},"CZLQ":{"name":"Thicket Portage","lat":55.318971,"lon":-97.707774,"fir":"CZWG"},"CZMD":{"name":"Muskrat Dam","lat":53.441389,"lon":-91.762778,"fir":"CZWG"},"CZML":{"name":"108 Mile","lat":51.7366,"lon":-121.332891,"fir":"CZVR"},"CZMN":{"name":"Pikwitonei","lat":55.589319,"lon":-97.163608,"fir":"CZWG"},"CZMT":{"name":"Masset","lat":54.027108,"lon":-132.125079,"fir":"CZVR"},"CZNG":{"name":"Poplar River","lat":52.996303,"lon":-97.273625,"fir":"CZWG"},"CZNL":{"name":"Nelson","lat":49.494083,"lon":-117.300556,"fir":"CZVR"},"CZPB":{"name":"Sachigo Lake","lat":53.890998,"lon":-92.196272,"fir":"CZWG"},"CZPC":{"name":"Pincher Creek","lat":49.520556,"lon":-113.997222,"fir":"CZEG"},"CZPO":{"name":"Pinehouse Lake","lat":55.528128,"lon":-106.582301,"fir":"CZWG"},"CZRJ":{"name":"Round Lake","lat":52.943611,"lon":-91.312778,"fir":"CZWG"},"CZSJ":{"name":"Sandy Lake","lat":53.064167,"lon":-93.344444,"fir":"CZWG"},"CZSN":{"name":"South Indian Lake","lat":56.792843,"lon":-98.907228,"fir":"CZWG"},"CZST":{"name":"Stewart","lat":55.93306,"lon":-129.98306,"fir":"CZVR"},"CZTA":{"name":"Bloodvein River","lat":51.784328,"lon":-96.692242,"fir":"CZWG"},"CZTM":{"name":"Shamattawa","lat":55.863029,"lon":-92.08139,"fir":"CZWG"},"CZUC":{"name":"Ignace","lat":49.429722,"lon":-91.717778,"fir":"CZWG"},"CZUE":{"name":"Cape Parry ","lat":70.16667,"lon":-124.7,"fir":"CZEG"},"CZUM":{"name":"Churchill Falls","lat":53.561944,"lon":-64.106389,"fir":"CZQX"},"CZVL":{"name":"Edmonton-Villeneuve","lat":53.66667,"lon":-113.86639,"fir":"CZEG"},"CZWH":{"name":"Lac Brochet","lat":58.614282,"lon":-101.468963,"fir":"CZEG"},"CZWL":{"name":"Wollaston Lake","lat":58.106965,"lon":-103.172422,"fir":"CZEG"},"DAAB":{"name":"Blida","lat":36.503611,"lon":2.814167,"fir":"DAAA"},"DAAD":{"name":"Bou-Saada","lat":35.331389,"lon":4.204444,"fir":"DAAA"},"DAAE":{"name":"Bejaia","lat":36.716667,"lon":5.066667,"fir":"DAAA"},"DAAF":{"name":"Aoulef","lat":26.96667,"lon":1.08306,"fir":"DAAA"},"DAAG":{"name":"Algiers-Houari Boumediene","lat":36.694444,"lon":3.216944,"fir":"DAAA"},"DAAJ":{"name":"Djanet","lat":24.293056,"lon":9.451944,"fir":"DAAA"},"DAAK":{"name":"Boufarik","lat":36.545833,"lon":2.876111,"fir":"DAAA"},"DAAM":{"name":"Telergma","lat":36.1,"lon":6.033333,"fir":"DAAA"},"DAAN":{"name":"Reggan","lat":26.71,"lon":0.285556,"fir":"DAAA"},"DAAP":{"name":"Illizi","lat":26.723611,"lon":8.617778,"fir":"DAAA"},"DAAQ":{"name":"Ain Oussera","lat":35.525278,"lon":2.878611,"fir":"DAAA"},"DAAS":{"name":"Setif","lat":36.18306,"lon":5.41639,"fir":"DAAA"},"DAAT":{"name":"Tamanrasset-Aguenna","lat":22.811111,"lon":5.450833,"fir":"DAAA"},"DAAV":{"name":"Jijel Achouat","lat":36.794444,"lon":5.873611,"fir":"DAAA"},"DAAW":{"name":"Bordj Omar Driss","lat":28.138056,"lon":6.836667,"fir":"DAAA"},"DAAY":{"name":"Mecheria","lat":34.93306,"lon":-0.43306,"fir":"DAAA"},"DAAZ":{"name":"Relizane","lat":35.752222,"lon":0.626389,"fir":"DAAA"},"DABB":{"name":"Annaba","lat":36.821667,"lon":7.81,"fir":"DAAA"},"DABC":{"name":"Constantine","lat":36.286667,"lon":6.621667,"fir":"DAAA"},"DABP":{"name":"Skikda","lat":36.93306,"lon":6.95,"fir":"DAAA"},"DABS":{"name":"Tebessa","lat":35.4325,"lon":8.125556,"fir":"DAAA"},"DABT":{"name":"Batna","lat":35.54972,"lon":6.18306,"fir":"DAAA"},"DAFH":{"name":"Hassi R Mel/Tilrempt","lat":32.930556,"lon":3.311667,"fir":"DAAA"},"DAFI":{"name":"Djelfa","lat":34.68306,"lon":3.25,"fir":"DAAA"},"DAOB":{"name":"Tiaret","lat":35.341389,"lon":1.466944,"fir":"DAAA"},"DAOE":{"name":"Bousfer","lat":35.735278,"lon":-0.805278,"fir":"DAAA"},"DAOF":{"name":"Tindouf","lat":27.66667,"lon":-8.13306,"fir":"DAAA"},"DAOI":{"name":"Ech ChleIiff","lat":36.21667,"lon":1.33306,"fir":"DAAA"},"DAOL":{"name":"Tafaraoui","lat":35.5425,"lon":-0.532222,"fir":"DAAA"},"DAON":{"name":"Tlemcen","lat":35.015278,"lon":-1.450833,"fir":"DAAA"},"DAOO":{"name":"Oran","lat":35.627778,"lon":-0.609167,"fir":"DAAA"},"DAOR":{"name":"Bechar","lat":31.61667,"lon":-2.23306,"fir":"DAAA"},"DAOS":{"name":"Sidi Bel Abbes","lat":35.171667,"lon":-0.593333,"fir":"DAAA"},"DAOV":{"name":"Ghriss","lat":35.216944,"lon":0.148333,"fir":"DAAA"},"DAOY":{"name":"El Bayadh","lat":33.720833,"lon":1.091389,"fir":"DAAA"},"DATG":{"name":"In Guezzam","lat":19.56075,"lon":5.751361,"fir":"DAAA"},"DATM":{"name":"Bordj Mokhtar","lat":21.375,"lon":0.923889,"fir":"DAAA"},"DAUA":{"name":"Adrar","lat":27.839167,"lon":-0.185278,"fir":"DAAA"},"DAUB":{"name":"Biskra","lat":34.79972,"lon":5.73306,"fir":"DAAA"},"DAUE":{"name":"El Golea","lat":30.568889,"lon":2.864722,"fir":"DAAA"},"DAUG":{"name":"Ghardaia","lat":32.381667,"lon":3.799444,"fir":"DAAA"},"DAUH":{"name":"Hassi-Messaoud","lat":31.673889,"lon":6.140556,"fir":"DAAA"},"DAUI":{"name":"In Salah","lat":27.250997,"lon":2.511356,"fir":"DAAA"},"DAUK":{"name":"Touggourt","lat":33.067803,"lon":6.088672,"fir":"DAAA"},"DAUL":{"name":"Laghouat","lat":33.76667,"lon":2.93306,"fir":"DAAA"},"DAUO":{"name":"El Qued","lat":33.513056,"lon":6.7825,"fir":"DAAA"},"DAUT":{"name":"Timimoun","lat":29.241111,"lon":0.283611,"fir":"DAAA"},"DAUU":{"name":"Ouargla","lat":31.91667,"lon":5.4,"fir":"DAAA"},"DAUZ":{"name":"In Amenas","lat":28.051389,"lon":9.642778,"fir":"DAAA"},"DBBB":{"name":"Cotonou","lat":6.356389,"lon":2.383333,"fir":"DGAC"},"DBBC":{"name":"Bohicon","lat":7.16667,"lon":2.06639,"fir":"DGAC"},"DBBK":{"name":"Kandi","lat":11.13306,"lon":2.93306,"fir":"DRRR"},"DBBN":{"name":"Natitingou","lat":10.31667,"lon":1.38306,"fir":"DGAC"},"DBBO":{"name":"Porga","lat":11.033333,"lon":0.983333,"fir":"DRRR"},"DBBP":{"name":"Parakou","lat":9.34972,"lon":2.61639,"fir":"DGAC"},"DBBS":{"name":"Save","lat":8.03306,"lon":2.46639,"fir":"DGAC"},"DFCA":{"name":"Kaya","lat":13.066667,"lon":-1.116667,"fir":"DRRR"},"DFCB":{"name":"Barsalogho","lat":13.4,"lon":-1.066667,"fir":"DRRR"},"DFCC":{"name":"Ouahigouya","lat":13.56667,"lon":-2.41639,"fir":"DRRR"},"DFCD":{"name":"Didyr","lat":12.55,"lon":-2.616667,"fir":"DRRR"},"DFCE":{"name":"Batie","lat":9.883333,"lon":-2.916667,"fir":"DRRR"},"DFCG":{"name":"Kongoussi","lat":13.316667,"lon":-1.533333,"fir":"DRRR"},"DFCI":{"name":"Titao","lat":13.766667,"lon":-2.083333,"fir":"DRRR"},"DFCJ":{"name":"Djibo","lat":14.126028,"lon":-1.624414,"fir":"DRRR"},"DFCK":{"name":"Koudougou","lat":12.266667,"lon":-2.4,"fir":"DRRR"},"DFCL":{"name":"Leo","lat":11.1,"lon":-2.1,"fir":"DRRR"},"DFCM":{"name":"Manga","lat":11.666667,"lon":-1.066667,"fir":"DRRR"},"DFCO":{"name":"Boromo","lat":11.75,"lon":-2.93306,"fir":"DRRR"},"DFCP":{"name":"Po","lat":11.15,"lon":-1.14972,"fir":"DRRR"},"DFCR":{"name":"Poura","lat":11.616667,"lon":-2.75,"fir":"DRRR"},"DFCS":{"name":"Seguenega","lat":13.433333,"lon":-2,"fir":"DRRR"},"DFCT":{"name":"Tenado","lat":12.2,"lon":-2.583333,"fir":"DRRR"},"DFCU":{"name":"Gourcy","lat":13.2,"lon":-2.366667,"fir":"DRRR"},"DFCY":{"name":"Yako","lat":12.95,"lon":-2.283333,"fir":"DRRR"},"DFEA":{"name":"Boulsa","lat":12.666667,"lon":-0.55,"fir":"DRRR"},"DFEB":{"name":"Bogande","lat":12.981435,"lon":-0.162613,"fir":"DRRR"},"DFEC":{"name":"Comin-Yanga","lat":11.7,"lon":0.15,"fir":"DRRR"},"DFED":{"name":"Diapaga","lat":12.060499,"lon":1.784918,"fir":"DRRR"},"DFEE":{"name":"Dori","lat":14.03306,"lon":-0.03306,"fir":"DRRR"},"DFEF":{"name":"Fada N'Gourma","lat":12.03306,"lon":0.36639,"fir":"DRRR"},"DFEG":{"name":"Gorom-Gorom","lat":14.455301,"lon":-0.217955,"fir":"DRRR"},"DFEK":{"name":"Koupela","lat":12.166667,"lon":-0.3,"fir":"DRRR"},"DFEM":{"name":"Tambao","lat":14.8,"lon":0.05,"fir":"DRRR"},"DFEO":{"name":"Zorgo","lat":12.25,"lon":-0.616667,"fir":"DRRR"},"DFEP":{"name":"Pama","lat":11.25,"lon":0.7,"fir":"DRRR"},"DFER":{"name":"Arly","lat":11.597324,"lon":1.481421,"fir":"DRRR"},"DFES":{"name":"Sebba","lat":13.456606,"lon":0.502493,"fir":"DRRR"},"DFET":{"name":"Tenkodogo","lat":11.8,"lon":-0.366667,"fir":"DRRR"},"DFEY":{"name":"Ouargaye","lat":11.516667,"lon":0.05,"fir":"DRRR"},"DFEZ":{"name":"Zabre","lat":11.166667,"lon":-0.633333,"fir":"DRRR"},"DFFD":{"name":"Ouagadougou","lat":12.353611,"lon":-1.511944,"fir":"DRRR"},"DFOA":{"name":"Dano","lat":11.133333,"lon":-3.066667,"fir":"DRRR"},"DFOB":{"name":"Banfora","lat":10.683333,"lon":-4.716667,"fir":"DRRR"},"DFOD":{"name":"Dedougou","lat":12.46667,"lon":-3.48306,"fir":"DRRR"},"DFOF":{"name":"Safane","lat":12.15,"lon":-3.183333,"fir":"DRRR"},"DFOG":{"name":"Gaoua","lat":10.33306,"lon":-3.18306,"fir":"DRRR"},"DFOH":{"name":"Hounde","lat":11.483333,"lon":-3.516667,"fir":"DRRR"},"DFOL":{"name":"Loumana","lat":10.566667,"lon":-5.35,"fir":"DRRR"},"DFON":{"name":"Nouna","lat":12.75,"lon":-3.866667,"fir":"DRRR"},"DFOO":{"name":"Bobo-Dioulasso","lat":11.1675,"lon":-4.321111,"fir":"DRRR"},"DFOR":{"name":"Kwame Nkhruma/Orodara","lat":10.986427,"lon":-4.924636,"fir":"DRRR"},"DFOS":{"name":"Sideradougou","lat":10.666667,"lon":-4.266667,"fir":"DRRR"},"DFOT":{"name":"Tougan","lat":13.066667,"lon":-3.066667,"fir":"DRRR"},"DFOU":{"name":"Diebougou","lat":10.95,"lon":-3.25,"fir":"DRRR"},"DFOY":{"name":"Aribinda","lat":14.216667,"lon":-0.883333,"fir":"DRRR"},"DGAA":{"name":"Accra","lat":5.596389,"lon":-0.17,"fir":"DGAC"},"DGAD":{"name":"Ada","lat":5.78306,"lon":0.63306,"fir":"DGAC"},"DGAH":{"name":"Ho","lat":6.59972,"lon":0.46639,"fir":"DGAC"},"DGAK":{"name":"Akuse","lat":6.09972,"lon":0.11639,"fir":"DGAC"},"DGAS":{"name":"Saltpond","lat":5.2,"lon":-1.06639,"fir":"DGAC"},"DGAT":{"name":"Tema","lat":5.61667,"lon":0,"fir":"DGAC"},"DGKA":{"name":"Akim Oda","lat":5.93306,"lon":-0.98306,"fir":"DGAC"},"DGKK":{"name":"Koforidua","lat":6.08306,"lon":-0.25,"fir":"DGAC"},"DGLB":{"name":"Bole","lat":9.03306,"lon":-2.48306,"fir":"DGAC"},"DGLE":{"name":"Tamale","lat":9.566667,"lon":-0.866667,"fir":"DGAC"},"DGLN":{"name":"Navrongo","lat":10.9,"lon":-1.1,"fir":"DGAC"},"DGLW":{"name":"Wa","lat":10.05,"lon":-2.5,"fir":"DGAC"},"DGLY":{"name":"Yendi","lat":9.44972,"lon":-0.01639,"fir":"DGAC"},"DGSB":{"name":"Sefwi Bekwai","lat":6.2,"lon":-2.33306,"fir":"DGAC"},"DGSI":{"name":"Kumasi","lat":6.716667,"lon":-1.583333,"fir":"DGAC"},"DGSN":{"name":"Sunyani","lat":7.362778,"lon":-2.329444,"fir":"DGAC"},"DGSW":{"name":"Wenchi","lat":7.75,"lon":-2.1,"fir":"DGAC"},"DGTK":{"name":"Takoradi","lat":4.891667,"lon":-1.766667,"fir":"DGAC"},"DGTX":{"name":"Axim","lat":4.86667,"lon":-2.23306,"fir":"DGAC"},"DIAD":{"name":"Adiake","lat":5.29972,"lon":-3.29972,"fir":"DIII"},"DIAO":{"name":"Aboisso","lat":5.45,"lon":-3.25,"fir":"GOOO"},"DIAP":{"name":"Abidjan","lat":5.254444,"lon":-3.928611,"fir":"DIII"},"DIAU":{"name":"Abengourou","lat":6.716667,"lon":-3.466667,"fir":"GOOO"},"DIBC":{"name":"Bocanda","lat":7.033333,"lon":-4.533333,"fir":"GOOO"},"DIBI":{"name":"Boundiali","lat":9.533333,"lon":-6.466667,"fir":"GOOO"},"DIBK":{"name":"Bouake","lat":7.7525,"lon":-5.067778,"fir":"DIII"},"DIBN":{"name":"Bouna/Tehini","lat":9.266667,"lon":-3.033333,"fir":"GOOO"},"DIBU":{"name":"Bondoukou","lat":8.05,"lon":-2.78306,"fir":"DIII"},"DIDB":{"name":"Dabou","lat":5.35,"lon":-4.4,"fir":"GOOO"},"DIDK":{"name":"Dimbokro","lat":6.65,"lon":-4.7,"fir":"DIII"},"DIDL":{"name":"Daloa","lat":6.86667,"lon":-6.46639,"fir":"DIII"},"DIFK":{"name":"Ferkessedougou","lat":9.6,"lon":-5.183333,"fir":"GOOO"},"DIGA":{"name":"Gagnoa","lat":6.13306,"lon":-5.95,"fir":"DIII"},"DIGL":{"name":"Guiglo","lat":6.525,"lon":-7.478611,"fir":"GOOO"},"DIGN":{"name":"Grand Bereby/Nero-Mer","lat":4.633333,"lon":-6.916667,"fir":"GOOO"},"DIKL":{"name":"Katiola","lat":8.116667,"lon":-5.066667,"fir":"GOOO"},"DIKO":{"name":"Korhogo","lat":9.41667,"lon":-5.61639,"fir":"DIII"},"DIMN":{"name":"Man","lat":7.38306,"lon":-7.51639,"fir":"DIII"},"DIMY":{"name":"Ity Airfield","lat":6.871781,"lon":-8.130067,"fir":"GLRB"},"DIOD":{"name":"Odienne","lat":9.5,"lon":-7.56639,"fir":"DIII"},"DIOF":{"name":"Ouango Fitini","lat":9.6,"lon":-4.05,"fir":"GOOO"},"DISG":{"name":"Seguela","lat":7.968333,"lon":-6.710833,"fir":"GOOO"},"DISP":{"name":"San Pedro","lat":4.75,"lon":-6.65,"fir":"DIII"},"DISS":{"name":"Sassandra","lat":4.95,"lon":-6.08306,"fir":"DIII"},"DITB":{"name":"Tabou","lat":4.41667,"lon":-7.36639,"fir":"DIII"},"DITM":{"name":"Touba/Mahana","lat":8.289722,"lon":-7.672778,"fir":"GOOO"},"DIYO":{"name":"Yamoussoukro","lat":6.905833,"lon":-5.363889,"fir":"DIII"},"DNAA":{"name":"Abuja-Nnamdi Azikiwe Intl","lat":9.006806,"lon":7.263194,"fir":"DNKK"},"DNAI":{"name":"Victor Attah Airport. Uyo","lat":4.872222,"lon":8.093611,"fir":"DNKK"},"DNAK":{"name":"Akure/Akure","lat":7.246745,"lon":5.30098,"fir":"DNKK"},"DNAS":{"name":"Asaba","lat":6.203194,"lon":6.667389,"fir":"DNKK"},"DNBA":{"name":"Bauchi/Old Bauchi","lat":10.292297,"lon":9.817313,"fir":"DNKK"},"DNBB":{"name":"Bebi","lat":6.621389,"lon":9.319167,"fir":"DNKK"},"DNBC":{"name":"Bauchi/Sir Abubakar Tafawa Balewa","lat":10.482778,"lon":9.743889,"fir":"DNKK"},"DNBE":{"name":"Benin/Benin","lat":6.316667,"lon":5.598889,"fir":"DNKK"},"DNBI":{"name":"Bida","lat":9.09972,"lon":6.01639,"fir":"DNKK"},"DNBK":{"name":"Birnin Kebbi/Sir Ahmadu Bello","lat":12.479167,"lon":4.369444,"fir":"DNKK"},"DNBY":{"name":"Bayelsa Cargo Airport","lat":4.95766,"lon":6.203375,"fir":"DNKK"},"DNCA":{"name":"Calabar","lat":4.975556,"lon":8.348056,"fir":"DNKK"},"DNDS":{"name":"Dutse/Dutse","lat":11.795278,"lon":9.301111,"fir":"DNKK"},"DNEK":{"name":"Eket","lat":4.642852,"lon":7.949148,"fir":"DNKK"},"DNEN":{"name":"Enugu/Akanu Ibiam","lat":6.473611,"lon":7.558889,"fir":"DNKK"},"DNES":{"name":"Escravos/Escravos","lat":5.620556,"lon":5.199167,"fir":"DNKK"},"DNFB":{"name":"Bonny/Finima Airstrip","lat":4.405,"lon":7.181111,"fir":"DNKK"},"DNFD":{"name":"Forcados/Forcados Terminal","lat":5.355,"lon":5.348889,"fir":"DNKK"},"DNGO":{"name":"Gombe/Gombe","lat":10.298056,"lon":10.899167,"fir":"DNKK"},"DNGU":{"name":"Gusau","lat":12.16667,"lon":6.7,"fir":"DNKK"},"DNIB":{"name":"Ibadan","lat":7.360833,"lon":3.978056,"fir":"DNKK"},"DNIL":{"name":"Ilorin","lat":8.439722,"lon":4.494722,"fir":"DNKK"},"DNIM":{"name":"Owerri/Sam Mbakwe","lat":5.427222,"lon":7.206111,"fir":"DNKK"},"DNJA":{"name":"Danbaba Suntai Airport","lat":8.866667,"lon":11.333333,"fir":"DNKK"},"DNJO":{"name":"Jos","lat":9.639722,"lon":8.87,"fir":"DNKK"},"DNKA":{"name":"Kaduna","lat":10.695,"lon":7.319444,"fir":"DNKK"},"DNKN":{"name":"Kano","lat":12.049167,"lon":8.525,"fir":"DNKK"},"DNKT":{"name":"Katsina/Katsina","lat":13.0075,"lon":7.660556,"fir":"DNKK"},"DNMA":{"name":"Maiduguri/Maiduguri","lat":11.855278,"lon":13.081389,"fir":"DNKK"},"DNMK":{"name":"Makurdi","lat":7.68306,"lon":8.61639,"fir":"DNKK"},"DNMM":{"name":"Lagos-Ikeja","lat":6.574722,"lon":3.318611,"fir":"DNKK"},"DNMN":{"name":"Minna/Minna","lat":9.652222,"lon":6.462222,"fir":"DNKK"},"DNOS":{"name":"Oshogbo","lat":7.78306,"lon":4.48306,"fir":"DNKK"},"DNPO":{"name":"Port Harcourt","lat":5.014444,"lon":6.950278,"fir":"DNKK"},"DNSO":{"name":"Sokoto","lat":12.916389,"lon":5.2075,"fir":"DNKK"},"DNSU":{"name":"Osubi/Osubi","lat":5.598056,"lon":5.818889,"fir":"DNKK"},"DNYO":{"name":"Yola","lat":9.259722,"lon":12.430833,"fir":"DNKK"},"DNZA":{"name":"Zaria","lat":11.133333,"lon":7.683333,"fir":"DNKK"},"DRRA":{"name":"Tessaoua","lat":13.766667,"lon":8.016667,"fir":"DRRR"},"DRRB":{"name":"Birni-N'Konni","lat":13.8,"lon":5.25,"fir":"DRRR"},"DRRC":{"name":"Dogondoutchi","lat":13.666667,"lon":4.1,"fir":"DRRR"},"DRRG":{"name":"Gaya","lat":11.88306,"lon":3.45,"fir":"DRRR"},"DRRI":{"name":"Bilma","lat":18.68306,"lon":12.91639,"fir":"DRRR"},"DRRL":{"name":"Tillabery","lat":14.19972,"lon":1.44972,"fir":"DRRR"},"DRRM":{"name":"Maradi","lat":13.46667,"lon":7.08306,"fir":"DRRR"},"DRRN":{"name":"Niamey-Aero","lat":13.481667,"lon":2.170278,"fir":"DRRR"},"DRRP":{"name":"La Tapoa","lat":12.483333,"lon":2.4,"fir":"DRRR"},"DRRT":{"name":"Tahoua","lat":14.9,"lon":5.25,"fir":"DRRR"},"DRRU":{"name":"Ouallam","lat":14.333333,"lon":2.083333,"fir":"DRRR"},"DRZA":{"name":"Agadez","lat":16.962222,"lon":7.990278,"fir":"DRRR"},"DRZD":{"name":"Dirkou","lat":18.968889,"lon":12.868889,"fir":"FTTT"},"DRZF":{"name":"Diffa","lat":13.41667,"lon":12.78306,"fir":"DRRR"},"DRZG":{"name":"Goure","lat":13.98306,"lon":10.3,"fir":"DRRR"},"DRZI":{"name":"Iferouane","lat":19.066667,"lon":8.366667,"fir":"DRRR"},"DRZL":{"name":"Arlit","lat":18.788889,"lon":7.36,"fir":"DRRR"},"DRZM":{"name":"Maine-Soroa","lat":13.23306,"lon":11.98306,"fir":"DRRR"},"DRZR":{"name":"Zinder","lat":13.783889,"lon":8.990278,"fir":"DRRR"},"DTKA":{"name":"Tabarka","lat":36.98,"lon":8.876944,"fir":"DTTC"},"DTMB":{"name":"Habib Bourguiba","lat":35.758056,"lon":10.754722,"fir":"DTTC"},"DTNH":{"name":"Enfidha Hammamet","lat":36.075833,"lon":10.438667,"fir":"DTTC"},"DTTA":{"name":"Tunis-Carthage","lat":36.851111,"lon":10.226944,"fir":"DTTC"},"DTTB":{"name":"Bizerte","lat":37.25,"lon":9.8,"fir":"DTTC"},"DTTD":{"name":"Remada","lat":32.31667,"lon":10.4,"fir":"DTTC"},"DTTF":{"name":"Gafsa","lat":34.415556,"lon":8.813611,"fir":"DTTC"},"DTTG":{"name":"Gabes","lat":33.88306,"lon":10.09972,"fir":"DTTC"},"DTTI":{"name":"Borj El Armi","lat":36.721167,"lon":9.943333,"fir":"DTTC"},"DTTJ":{"name":"Djerba Mellita","lat":33.875556,"lon":10.777222,"fir":"DTTC"},"DTTK":{"name":"Kairouan","lat":35.66667,"lon":10.09972,"fir":"DTTC"},"DTTL":{"name":"Kelibia","lat":36.85,"lon":11.08306,"fir":"DTTC"},"DTTM":{"name":"Monastir-Skanes","lat":35.66667,"lon":10.75,"fir":"DTTC"},"DTTN":{"name":"Jendouba","lat":36.48306,"lon":8.8,"fir":"DTTC"},"DTTR":{"name":"El Borma","lat":31.68306,"lon":9.16639,"fir":"DTTC"},"DTTX":{"name":"Sfax El-Maou","lat":34.720556,"lon":10.688611,"fir":"DTTC"},"DTTZ":{"name":"Tozeur","lat":33.939722,"lon":8.110556,"fir":"DTTC"},"DXAK":{"name":"Atakpame","lat":7.58306,"lon":1.11639,"fir":"DGAC"},"DXDP":{"name":"Dapaong/Djangou","lat":10.800556,"lon":0.2425,"fir":"DGAC"},"DXKP":{"name":"Anie/Kolokope","lat":7.8,"lon":1.283333,"fir":"DGAC"},"DXMG":{"name":"Mango","lat":10.36667,"lon":0.46639,"fir":"DGAC"},"DXNG":{"name":"Niamtougou","lat":9.7775,"lon":1.095556,"fir":"DGAC"},"DXSK":{"name":"Sokode","lat":8.98306,"lon":1.14972,"fir":"DGAC"},"DXTA":{"name":"Tabligbo","lat":6.58306,"lon":1.5,"fir":"DGAC"},"DXXX":{"name":"Lome","lat":6.165944,"lon":1.254306,"fir":"DGAC"},"EBAM":{"name":"Amougies","lat":50.739444,"lon":3.486111,"fir":"EBBU"},"EBAR":{"name":"Arlon/Sterpenich","lat":49.662778,"lon":5.886944,"fir":"EBBU"},"EBAV":{"name":"Hannut/Avernas-Le-Bauduin","lat":50.706667,"lon":5.068056,"fir":"EBBU"},"EBAW":{"name":"Antwerpen","lat":51.189444,"lon":4.460278,"fir":"EBBU"},"EBBE":{"name":"Beauvechain","lat":50.757833,"lon":4.767,"fir":"EBBU"},"EBBL":{"name":"Kleine Brogel","lat":51.168333,"lon":5.469722,"fir":"EBBU"},"EBBN":{"name":"Buellingen","lat":50.415,"lon":6.276389,"fir":"EBBU"},"EBBR":{"name":"Bruxelles National","lat":50.901389,"lon":4.484444,"fir":"EBBU"},"EBBT":{"name":"Brasschaat","lat":51.33306,"lon":4.5,"fir":"EBBU"},"EBBX":{"name":"Bertrix Bel- AFB","lat":49.89972,"lon":5.21639,"fir":"EBBU"},"EBBY":{"name":"Genappe/Baisy-Thy","lat":50.568611,"lon":4.434722,"fir":"EBBU"},"EBBZ":{"name":"Pont-A-Celles/Buzet","lat":50.541667,"lon":4.381111,"fir":"EBBU"},"EBCF":{"name":"Cerfontaine","lat":50.152778,"lon":4.387222,"fir":"EBBU"},"EBCI":{"name":"Charleroi","lat":50.46,"lon":4.452778,"fir":"EBBU"},"EBCV":{"name":"Chievres","lat":50.576728,"lon":3.838742,"fir":"EBBU"},"EBDT":{"name":"Schaffen","lat":51,"lon":5.06639,"fir":"EBBU"},"EBEH":{"name":"Hydrobase De L'Eau D'Heure","lat":50.183611,"lon":4.369722,"fir":"EBBU"},"EBFN":{"name":"Koksijde","lat":51.090333,"lon":2.652833,"fir":"EBBU"},"EBFS":{"name":"Florennes","lat":50.243333,"lon":4.645556,"fir":"EBBU"},"EBGB":{"name":"Grimbergen/Lint","lat":50.948611,"lon":4.391944,"fir":"EBBU"},"EBGG":{"name":"Geraardsbergen/Overboelare","lat":50.755556,"lon":3.863889,"fir":"EBBU"},"EBGT":{"name":"Gent-Industrie-Zone","lat":51.18306,"lon":3.81639,"fir":"EBBU"},"EBHN":{"name":"Hoevenen","lat":51.305278,"lon":4.390556,"fir":"EBBU"},"EBIS":{"name":"Ath/Isieres","lat":50.664167,"lon":3.804444,"fir":"EBBU"},"EBKH":{"name":"Balen/Keiheuvel","lat":51.180833,"lon":5.220833,"fir":"EBBU"},"EBKT":{"name":"Kortrijk-Wevelgem","lat":50.818053,"lon":3.208333,"fir":"EBBU"},"EBLB":{"name":"Elsenborn","lat":50.46667,"lon":6.18306,"fir":"EBBU"},"EBLE":{"name":"Leopoldsburg/Beverlo","lat":51.12,"lon":5.307222,"fir":"EBBU"},"EBLG":{"name":"Liege","lat":50.636389,"lon":5.442778,"fir":"EBBU"},"EBLN":{"name":"Eghezee/Liernu","lat":50.579722,"lon":4.792222,"fir":"EBBU"},"EBMB":{"name":"Melsbroek Bel- AFB","lat":50.89972,"lon":4.5,"fir":"EBBU"},"EBMG":{"name":"Doische/Matagne-La-Petite","lat":50.104722,"lon":4.638056,"fir":"EBBU"},"EBML":{"name":"Assesse/Maillen","lat":50.374167,"lon":4.927778,"fir":"EBBU"},"EBMO":{"name":"Moorsele","lat":50.8525,"lon":3.147222,"fir":"EBBU"},"EBMT":{"name":"Munte","lat":50.93306,"lon":3.73306,"fir":"EBBU"},"EBNE":{"name":"Neerpelt","lat":51.211944,"lon":5.478611,"fir":"EBBU"},"EBNM":{"name":"Namur/Suarlee","lat":50.488056,"lon":4.768889,"fir":"EBBU"},"EBOR":{"name":"Vresse-Sur-Semois/Orchimont","lat":49.907222,"lon":4.936389,"fir":"EBBU"},"EBOS":{"name":"Oostende","lat":51.198889,"lon":2.862222,"fir":"EBBU"},"EBSG":{"name":"Saint-Ghislain","lat":50.4575,"lon":3.820278,"fir":"EBBU"},"EBSH":{"name":"Saint-Hubert/Saint-Hubert","lat":50.035833,"lon":5.404167,"fir":"EBBU"},"EBSL":{"name":"Zutendaal","lat":50.9475,"lon":5.590556,"fir":"EBBU"},"EBSP":{"name":"Spa-La Sauveniere","lat":50.48306,"lon":5.91639,"fir":"EBBU"},"EBST":{"name":"Sint-Truiden","lat":50.79972,"lon":5.2,"fir":"EBBU"},"EBSU":{"name":"St-Hubert","lat":50.03306,"lon":5.4,"fir":"EBBU"},"EBTN":{"name":"Goetsenhoven","lat":50.78306,"lon":4.95,"fir":"EBBU"},